{"venues":[{"category":"atm","lon":-5.53289830684662,"created_on":1465943680,"name":"One And All","lat":50.1220639499942,"id":8225,"description":"One-way Bitcoin ATM located in 'One And All' Pub, 200ft from Penzance train station","web_site":"https://www.cryptodechange.com","email":"contact@cryptodechange.com","facebook":"cryptodechange","country":"GB","state":"Cornwall","city":"Penzance","zip_code":"TR18 2TD","street":"East Terrace","number":"3","complement":null,"reference_point":null},{"category":"default","lon":24.9390492,"created_on":1397211665,"name":"Belle Modeste","lat":60.1605345,"id":42,"description":null,"web_site":"http://www.bellemodeste.com/","email":null,"facebook":null,"country":"FI","state":null,"city":"Helsinki","zip_code":"00180","street":"Ruoholahdenkatu","number":"6","complement":null,"reference_point":null},{"category":"grocery","lon":-123.3124115,"created_on":1394219130,"name":"Slaters Meats","lat":48.4377466,"id":15,"description":null,"web_site":"http://slatersmeats.com/","email":null,"facebook":null,"country":"CA","state":"British Columbia","city":"Oak Bay","zip_code":null,"street":"Cadboro Bay Road","number":"2577","complement":null,"reference_point":null},{"category":"default","lon":14.3588965,"created_on":1422120857,"name":"kaktusy eshop","lat":50.0658333,"id":33,"description":null,"web_site":"http://www.kaktusy.cz/eshop","email":null,"facebook":null,"country":"CZ","state":null,"city":null,"zip_code":"15000","street":"Nad zámečkem","number":"393/55","complement":null,"reference_point":null},{"category":"food","lon":-0.0593789,"created_on":1370785480,"name":"Pembury Tavern","lat":51.5493776,"id":3,"description":null,"web_site":"http://www.individualpubs.co.uk/pembury/","email":null,"facebook":null,"country":"GB","state":null,"city":"London","zip_code":"E8 1JH","street":"Amhurst Road","number":"90","complement":null,"reference_point":null},{"category":"shopping","lon":22.2818123,"created_on":1417878506,"name":"Tietokonekauppa","lat":60.4456862,"id":4,"description":null,"web_site":"http://www.tietokonekauppa.fi/","email":null,"facebook":null,"country":"FI","state":null,"city":null,"zip_code":"20700","street":"Itäinen Pitkäkatu","number":"26","complement":null,"reference_point":null},{"category":"lodging","lon":11.4862062,"created_on":1365921482,"name":"Bandholm Hotel","lat":54.8370236,"id":5,"description":null,"web_site":"http://bandholmhotel.dk/","email":null,"facebook":null,"country":"DK","state":null,"city":null,"zip_code":null,"street":null,"number":null,"complement":null,"reference_point":null},{"category":"default","lon":-121.0165666,"created_on":1386794770,"name":"SierraHosts.net","lat":39.2615749,"id":8,"description":null,"web_site":"http://sierrahosts.net","email":null,"facebook":null,"country":"US","state":"California","city":null,"zip_code":null,"street":null,"number":null,"complement":null,"reference_point":null},{"category":"nightlife","lon":24.927098,"created_on":1398852994,"name":"Helkan Baari","lat":60.169775,"id":7,"description":null,"web_site":null,"email":null,"facebook":null,"country":"FI","state":null,"city":"Helsinki","zip_code":"00100","street":"Pohjoinen Rautatiekatu","number":"23","complement":null,"reference_point":null},{"category":"default","lon":-104.9362682,"created_on":1389447527,"name":"Costa Rica Travel Market LLC","lat":39.7146512,"id":10,"description":null,"web_site":"http://www.costaricatravelmarket.com","email":null,"facebook":null,"country":"US","state":"Colorado","city":null,"zip_code":null,"street":null,"number":null,"complement":null,"reference_point":null},{"category":"attraction","lon":14.4299522,"created_on":1419019534,"name":"Bio Oko","lat":50.0999576,"id":9,"description":null,"web_site":"http://www.biooko.net/","email":null,"facebook":null,"country":"CZ","state":null,"city":"Praha 7","zip_code":"17000","street":"Františka Křížka","number":"460/15","complement":null,"reference_point":null},{"category":"shopping","lon":-71.0863982,"created_on":1409879886,"name":"MIT Coop","lat":42.3626795,"id":12,"description":null,"web_site":"http://web.mit.edu/thecoop/","email":null,"facebook":null,"country":"US","state":"Massachusetts","city":null,"zip_code":null,"street":null,"number":null,"complement":null,"reference_point":null},{"category":"default","lon":80.2507557,"created_on":1388228457,"name":"SurajShkathi","lat":13.052391,"id":11,"description":null,"web_site":"http://surajshakthi.com/","email":null,"facebook":null,"country":"IN","state":null,"city":"Chennai, Tamilnadu","zip_code":null,"street":null,"number":null,"complement":null,"reference_point":null},{"category":"food","lon":9.7208159,"created_on":1418632929,"name":"The Harp","lat":52.3679569,"id":13,"description":null,"web_site":null,"email":null,"facebook":null,"country":"DE","state":null,"city":null,"zip_code":null,"street":null,"number":null,"complement":null,"reference_point":null},{"category":"food","lon":12.5789419,"created_on":1402145582,"name":"The Dubliner","lat":55.6786451,"id":14,"description":null,"web_site":null,"email":null,"facebook":null,"country":"DK","state":null,"city":null,"zip_code":null,"street":null,"number":null,"complement":null,"reference_point":null},{"category":"default","lon":-122.4504132,"created_on":1385666967,"name":"Deborah Hodgson Vamp Couture","lat":37.7705183,"id":6,"description":null,"web_site":"https://sites.google.com/site/stylinpartygirl","email":null,"facebook":null,"country":"US","state":"California","city":null,"zip_code":null,"street":null,"number":null,"complement":null,"reference_point":null},{"category":"food","lon":-0.2457512,"created_on":1370785039,"name":"Coalheavers Arms","lat":52.5621339,"id":16,"description":null,"web_site":"http://www.individualpubs.co.uk/coalheavers/","email":null,"facebook":null,"country":"GB","state":null,"city":"Peterborough","zip_code":"PE2 9BH","street":"Park Street","number":"5","complement":null,"reference_point":null},{"category":"lodging","lon":31.0469154,"created_on":1417043002,"name":"Monomatapa Hotel","lat":-17.825695,"id":17,"description":null,"web_site":null,"email":null,"facebook":null,"country":"ZW","state":null,"city":null,"zip_code":null,"street":null,"number":null,"complement":null,"reference_point":null},{"category":"transport","lon":2.830864,"created_on":1424272829,"name":"E. S. LES ALEGRIES","lat":41.713569,"id":18,"description":null,"web_site":"http://www.cantaulina.com/","email":null,"facebook":null,"country":"ES","state":null,"city":null,"zip_code":null,"street":"AVDA LES ALEGRIES, 89-91","number":null,"complement":null,"reference_point":null},{"category":"food","lon":11.1504525,"created_on":1418985021,"name":"Pizzeria OroStube","lat":46.0647594,"id":19,"description":null,"web_site":"http://www.orostube.it/","email":null,"facebook":null,"country":"IT","state":null,"city":"Trento","zip_code":"38123","street":"Via Sommarive","number":"10","complement":null,"reference_point":null},{"category":"transport","lon":4.9080895,"created_on":1421950763,"name":"StarBikes Rental","lat":52.3774607,"id":20,"description":null,"web_site":null,"email":null,"facebook":null,"country":"NL","state":null,"city":null,"zip_code":null,"street":null,"number":null,"complement":null,"reference_point":null},{"category":"default","lon":14.4169321,"created_on":1406348966,"name":"Electronic Tour Guide Rental Point, Art Elephants souvenir & gift shop","lat":50.0859427,"id":21,"description":null,"web_site":"https://electronictourguide.com","email":null,"facebook":null,"country":"CZ","state":null,"city":null,"zip_code":"11000","street":"Karlova","number":"174/24","complement":null,"reference_point":null},{"category":"default","lon":12.8808408,"created_on":1387016981,"name":"Romana Dvořáková","lat":50.2330492,"id":22,"description":null,"web_site":"http://www.wellnessis.cz/","email":null,"facebook":null,"country":"CZ","state":null,"city":"Karlovy Vary","zip_code":"36009","street":"Anglická","number":"265/22","complement":null,"reference_point":null},{"category":"default","lon":14.4519789,"created_on":1382458998,"name":"Locus Workspace - Slezská | Coworkingové centrum","lat":50.0763866,"id":23,"description":null,"web_site":"http://www.locusworkspace.cz","email":null,"facebook":null,"country":"CZ","state":null,"city":"Praha","zip_code":"13000","street":"Slezská","number":"857/45","complement":null,"reference_point":null},{"category":"default","lon":14.4191508,"created_on":1386581202,"name":"STARSKY DIGITAL AGENCY","lat":50.0816786,"id":27,"description":null,"web_site":"http://starsky.cz/","email":null,"facebook":null,"country":"CZ","state":null,"city":"Praha","zip_code":"11000","street":"Spálená","number":"108/51","complement":null,"reference_point":null},{"category":"default","lon":14.4629394,"created_on":1388703167,"name":"GOURMETKAVA.CZ (výdejní místo na vyžádání emailem)","lat":50.0777622,"id":28,"description":null,"web_site":"http://gourmetkava.cz/","email":null,"facebook":null,"country":"CZ","state":null,"city":"Praha","zip_code":"13000","street":"Vinohradská","number":"2344/146","complement":null,"reference_point":null},{"category":"default","lon":17.2932786,"created_on":1399892189,"name":"Salva_Quardia","lat":49.6142365,"id":31,"description":null,"web_site":"http://salva-quardia.cz/","email":null,"facebook":null,"country":"CZ","state":null,"city":null,"zip_code":"77900","street":"Selské nám.","number":"484/63","complement":null,"reference_point":null},{"category":"default","lon":14.3983579,"created_on":1427992618,"name":"Studio Najbrt","lat":50.0669199,"id":34,"description":null,"web_site":"http://www.najbrt.cz","email":null,"facebook":null,"country":"CZ","state":null,"city":null,"zip_code":"15000","street":"U Nikolajky","number":"822/7","complement":null,"reference_point":null},{"category":"shopping","lon":14.4747797,"created_on":1386828545,"name":"Jeli-design | Interiérový design","lat":50.1092795,"id":35,"description":null,"web_site":"http://jeli-design.cz/","email":"vendula@jelinkova-designer.cz","facebook":null,"country":"CZ","state":null,"city":null,"zip_code":"18000","street":"Pivovarnická","number":"1808/6","complement":null,"reference_point":null},{"category":"shopping","lon":24.9259094,"created_on":1427135702,"name":"HUG BikeShop","lat":60.1623144,"id":36,"description":null,"web_site":null,"email":null,"facebook":null,"country":"FI","state":null,"city":"Helsinki","zip_code":null,"street":"Köydenpunojankatu","number":"4a","complement":null,"reference_point":null},{"category":"food","lon":-3.526299,"created_on":1393702018,"name":"The Port Royal","lat":50.7156495,"id":37,"description":null,"web_site":"http://www.theportroyal.co.uk/","email":null,"facebook":null,"country":"GB","state":null,"city":null,"zip_code":"EX2 4DR","street":null,"number":null,"complement":null,"reference_point":null},{"category":"food","lon":-3.6895592,"created_on":1415272878,"name":"Hard Rock Café","lat":40.4262919,"id":38,"description":null,"web_site":"http://www.hardrock.com/locations/cafes3/cafe.aspx?LocationID=40&MIBEnumID=3","email":null,"facebook":null,"country":"ES","state":null,"city":"Madrid","zip_code":"28046","street":"Paseo de la Castellana","number":"2","complement":null,"reference_point":null},{"category":"lodging","lon":-3.6881547,"created_on":1415269399,"name":"Petit Palace President Castellana","lat":40.4292318,"id":39,"description":null,"web_site":"http://www.petitpalace.com/hotel-president-castellana-en-madrid/","email":"pre@hthoteles.com","facebook":null,"country":"ES","state":null,"city":"Madrid","zip_code":"28001","street":"Calle Marqués de Villamagna","number":"4","complement":null,"reference_point":null},{"category":"food","lon":4.4544669,"created_on":1395080051,"name":"Alice Homemade","lat":50.8687731,"id":40,"description":null,"web_site":null,"email":"alicehomemade@gmail.com","facebook":null,"country":"BE","state":null,"city":"Sint-Stevens-Woluwe","zip_code":"1932","street":"Leuvensesteenweg","number":"265","complement":null,"reference_point":null},{"category":"food","lon":13.4179531,"created_on":1365929649,"name":"Room 77","lat":52.493019,"id":41,"description":null,"web_site":"http://www.room77.de/","email":"info@room77.de","facebook":null,"country":"DE","state":null,"city":"Berlin","zip_code":"10967","street":"Graefestraße","number":"77","complement":null,"reference_point":null},{"category":"food","lon":-0.0876143,"created_on":1421927553,"name":"Nin Com Soup","lat":51.5255775,"id":258,"description":null,"web_site":null,"email":null,"facebook":null,"country":"GB","state":null,"city":null,"zip_code":null,"street":null,"number":null,"complement":null,"reference_point":null},{"category":"default","lon":14.4534252,"created_on":1389181307,"name":"Justiz-Caps","lat":50.0950734,"id":29,"description":null,"web_site":"http://justicecaps.com/","email":"customerservice@justicecaps.com","facebook":null,"country":"CZ","state":null,"city":"Praha","zip_code":"18600","street":"Pobřežní","number":"95/74","complement":null,"reference_point":null},{"category":"food","lon":0.1390513,"created_on":1370786241,"name":"Devonshire Arms","lat":52.1989253,"id":1,"description":null,"web_site":"http://www.individualpubs.co.uk/devonshire/","email":null,"facebook":null,"country":"GB","state":null,"city":"Cambridge","zip_code":"CB1 2BH","street":"Devonshire Road","number":"1","complement":null,"reference_point":null},{"category":"lodging","lon":152.150097,"created_on":1412221903,"name":"Port Stephens Motor Lodge","lat":-32.7187665,"id":2,"description":null,"web_site":"http://www.portstephensmotorlodge.com.au/","email":"psml@bigpond.com","facebook":null,"country":"AU","state":"New South Wales","city":"Nelson Bay","zip_code":"2315","street":"Magnus Street","number":"44","complement":null,"reference_point":null},{"category":"shopping","lon":-86.3466274738312,"created_on":1465956215,"name":"Stack-Tech Computer Repair","lat":40.7525644171388,"id":8226,"description":"Computer Repair & IT Services","web_site":"http://stack-tech.com","email":"info@stack-tech.com","facebook":"StackTech","country":"US","state":"Indiana","city":"Logansport","zip_code":"46947","street":"Smead Street","number":"1631","complement":null,"reference_point":null},{"category":"cafe","lon":-122.499287,"created_on":1399646864,"name":"Nova Rosti","lat":37.9580745,"id":3928,"description":null,"web_site":null,"email":null,"facebook":null,"country":"US","state":"California","city":null,"zip_code":null,"street":null,"number":null,"complement":null,"reference_point":null},{"category":"default","lon":23.0456256866455,"created_on":1479749583,"name":"Advanced Computing ltd","lat":40.3225161001552,"id":8865,"description":"IT Solutions, Web hosting, Software development, Service in Halkidiki & Thessaloniki","web_site":"http://acss.gr","email":"info@acss.gr","facebook":null,"country":"GR","state":null,"city":"Nea Herakleia","zip_code":"63080","street":null,"number":null,"complement":null,"reference_point":null},{"category":"food","lon":9.7168731,"created_on":1427731152,"name":"Härtekrug","lat":52.3670914,"id":46,"description":null,"web_site":null,"email":null,"facebook":null,"country":"DE","state":null,"city":"Hannover","zip_code":"30449","street":"Falkenstraße","number":"22","complement":null,"reference_point":null},{"category":"default","lon":9.7350293,"created_on":1430907077,"name":"Identitätsstiftung GmbH","lat":52.3702884,"id":47,"description":null,"web_site":null,"email":null,"facebook":null,"country":"DE","state":null,"city":"Hannover","zip_code":"30159","street":"Karmarschstraße","number":"50","complement":null,"reference_point":null},{"category":"default","lon":-83.0055556,"created_on":1386095442,"name":"Columbus Worship Center","lat":39.9863889,"id":50,"description":null,"web_site":null,"email":null,"facebook":null,"country":"US","state":"Ohio","city":null,"zip_code":null,"street":null,"number":null,"complement":null,"reference_point":null},{"category":"atm","lon":21.0032264,"created_on":1418192330,"name":"Bobby Burger","lat":52.2313715,"id":49,"description":null,"web_site":null,"email":null,"facebook":null,"country":"PL","state":null,"city":"Warszawa","zip_code":null,"street":"Emilii Plater","number":"47","complement":null,"reference_point":null},{"category":"default","lon":-74.325,"created_on":1383436754,"name":"Saint John The Evangelist Roman Catholic Church","lat":41.4047222,"id":51,"description":null,"web_site":"http://stjohnsgoshen.com/","email":null,"facebook":null,"country":"US","state":"New York","city":null,"zip_code":null,"street":"Murray Avenue","number":"71","complement":null,"reference_point":null},{"category":"default","lon":-91.0684555,"created_on":1385449366,"name":"Dezins Interactive","lat":30.4094827,"id":52,"description":null,"web_site":"http://DezinsInteractive.com","email":null,"facebook":null,"country":"US","state":"Louisiana","city":"Baton Rouge","zip_code":"70809","street":"Jefferson Hwy","number":"10311","complement":null,"reference_point":null},{"category":"default","lon":-94.8606,"created_on":1385566742,"name":"Mill Creek Community Church","lat":38.9859,"id":53,"description":null,"web_site":"http://www.mymillcreek.com/","email":null,"facebook":null,"country":"US","state":"Kansas","city":"Shawnee","zip_code":"66227","street":"Gleason Road","number":"7825","complement":null,"reference_point":null},{"category":"default","lon":-117.7114158,"created_on":1385055371,"name":"Color-Glide ColorGlidePro.com - paint brush replacement  product","lat":33.608786,"id":54,"description":null,"web_site":"http://colorglidepro.com","email":null,"facebook":null,"country":"US","state":"California","city":null,"zip_code":null,"street":null,"number":null,"complement":null,"reference_point":null},{"category":"attraction","lon":-82.6305988,"created_on":1408723158,"name":"Saint Petersburg Museum of History","lat":27.773935,"id":55,"description":null,"web_site":null,"email":null,"facebook":null,"country":"US","state":"Florida","city":"St. Petersburg","zip_code":"33701","street":"2nd Ave NE","number":null,"complement":null,"reference_point":null},{"category":"default","lon":-98.5687186,"created_on":1397232908,"name":"Law Office of Michael McLees","lat":29.5241688,"id":56,"description":null,"web_site":null,"email":null,"facebook":null,"country":"US","state":"Texas","city":"San Antonio","zip_code":"78240","street":"Wurzbach","number":"8746","complement":null,"reference_point":null},{"category":"shopping","lon":-122.4234775,"created_on":1409361742,"name":"Laundry Locker Kiosk","lat":37.7949855,"id":60,"description":null,"web_site":"https://laundrylocker.com","email":null,"facebook":null,"country":"US","state":"California","city":null,"zip_code":null,"street":"Van Ness Avenue","number":"2103","complement":null,"reference_point":null},{"category":"cafe","lon":-79.4130037,"created_on":1403569846,"name":"Snakes & Lattes","lat":43.6647999,"id":61,"description":null,"web_site":"http://www.snakesandlattes.com/","email":null,"facebook":null,"country":"CA","state":"Ontario","city":"Toronto","zip_code":"M6G 1K4","street":"Bloor Street West","number":"600","complement":null,"reference_point":null},{"category":"default","lon":126.457458,"created_on":1410875539,"name":"제생한의원 (Jesaeng Oriental Medicine Clinic)","lat":36.782283,"id":58,"description":null,"web_site":"http://goo.gl/wTU6b0","email":null,"facebook":null,"country":"KR","state":null,"city":null,"zip_code":null,"street":null,"number":null,"complement":null,"reference_point":null},{"category":"shopping","lon":-122.4223164,"created_on":1420665190,"name":"Skunk Funk","lat":37.7678512,"id":65,"description":null,"web_site":"http://shopskunkfunk.com","email":null,"facebook":null,"country":"US","state":"California","city":"San Francisco","zip_code":"94103","street":"Valencia Street","number":"302","complement":null,"reference_point":null},{"category":"default","lon":-122.4461924,"created_on":1420762098,"name":"Pet Camp Cat Safari","lat":37.7882789,"id":48,"description":null,"web_site":"http://petcamp.com","email":null,"facebook":null,"country":"US","state":"California","city":"San Francisco","zip_code":"94115","street":"Sacramento Street","number":"3233","complement":null,"reference_point":null},{"category":"sports","lon":9.1394098,"created_on":1374226786,"name":"Yogarte","lat":45.4752538,"id":62,"description":null,"web_site":"http://yogarte.it","email":null,"facebook":null,"country":"IT","state":null,"city":"Milano","zip_code":null,"street":"Via Mariotto Albertinelli","number":"6","complement":null,"reference_point":null},{"category":"food","lon":-61.8495595,"created_on":1415731770,"name":"Ana's on the beach","lat":17.1565111,"id":63,"description":null,"web_site":"http://www.Anas.ag/","email":"info@Anas.ag","facebook":null,"country":"AG","state":null,"city":null,"zip_code":null,"street":null,"number":null,"complement":null,"reference_point":null},{"category":"shopping","lon":-122.318096,"created_on":1420753066,"name":"Cyclepath","lat":37.5555738,"id":73,"description":null,"web_site":"http://cyclepathsm.com","email":null,"facebook":null,"country":"US","state":"California","city":"San Mateo","zip_code":"94402","street":"S El Camino Real","number":"1212","complement":null,"reference_point":null},{"category":"nightlife","lon":-79.3989471,"created_on":1402686557,"name":"Grossman's Tavern","lat":43.6560303,"id":57,"description":null,"web_site":null,"email":null,"facebook":null,"country":"CA","state":"Ontario","city":"Toronto","zip_code":null,"street":"Spadina Avenue","number":"379","complement":null,"reference_point":null},{"category":"food","lon":-0.0226612,"created_on":1390247659,"name":"The Birds Nest","lat":51.4761795,"id":67,"description":null,"web_site":null,"email":null,"facebook":null,"country":"GB","state":null,"city":null,"zip_code":null,"street":null,"number":null,"complement":null,"reference_point":null},{"category":"default","lon":4.8917775,"created_on":1387085629,"name":"FreeJobz Amsterdam","lat":52.3655461,"id":68,"description":null,"web_site":"http://freejobz.nl/","email":null,"facebook":null,"country":"NL","state":null,"city":"Amsterdam","zip_code":"1017BT","street":"Herengracht","number":"499","complement":null,"reference_point":null},{"category":"transport","lon":8.3190782,"created_on":1401488003,"name":"Tamoil","lat":46.2065817,"id":69,"description":null,"web_site":null,"email":null,"facebook":null,"country":"IT","state":null,"city":null,"zip_code":null,"street":null,"number":null,"complement":null,"reference_point":null},{"category":"shopping","lon":17.2422572,"created_on":1424379744,"name":"Vlasové studio Petra Nowaková","lat":49.5946604,"id":70,"description":null,"web_site":"https://www.facebook.com/pages/Vlasov%C3%A9-studio-Petra-Nowakov%C3%A1/1498933813716230","email":null,"facebook":null,"country":"CZ","state":null,"city":"Olomouc","zip_code":"77900","street":"Krapkova","number":"279/5","complement":null,"reference_point":null},{"category":"default","lon":14.3718615,"created_on":1404836726,"name":"AntiRadary.NET s.r.o.","lat":50.0996098,"id":71,"description":null,"web_site":"http://www.antiradary.net","email":null,"facebook":null,"country":"CZ","state":null,"city":null,"zip_code":"16000","street":"Na Sekyrce","number":"1392/2","complement":null,"reference_point":null},{"category":"default","lon":17.2817969,"created_on":1415875844,"name":"Gappa Solutions s.r.o.","lat":49.6063251,"id":72,"description":null,"web_site":"http://www.gappa.cz/","email":null,"facebook":null,"country":"CZ","state":null,"city":"Olomouc","zip_code":"77900","street":"Chválkovická","number":"120/24","complement":null,"reference_point":null},{"category":"default","lon":-80.8215111,"created_on":1405452629,"name":"iTek Graphics","lat":35.2743463,"id":76,"description":null,"web_site":"http://www.itekgraphics.com","email":null,"facebook":null,"country":"US","state":"North Carolina","city":"Charlotte","zip_code":"28206","street":"Interstate North Dr","number":"2200","complement":null,"reference_point":null},{"category":"food","lon":5.3636061,"created_on":1383680703,"name":"snackbar \"De Hoefslag\"","lat":52.160142,"id":74,"description":null,"web_site":"http://snackbardehoefslag.nl/","email":null,"facebook":null,"country":"NL","state":null,"city":"Amersfoort","zip_code":"3812 VW","street":"Violenstraat","number":"71","complement":null,"reference_point":null},{"category":"atm","lon":174.7531083,"created_on":1390252903,"name":"The Dog's Bollix Pub (BTC ATM)","lat":-36.8599089,"id":75,"description":null,"web_site":"https://www.facebook.com/pages/The-Dogs-Bollix/335625706564286","email":null,"facebook":null,"country":"NZ","state":null,"city":"Auckland","zip_code":null,"street":"Newton Road","number":"2","complement":null,"reference_point":null},{"category":"food","lon":-80.611025,"created_on":1401472311,"name":"Saim Orchid Japanese Restaraunt","lat":28.333289,"id":79,"description":null,"web_site":"http://siamorchidthaisushi.com/","email":null,"facebook":null,"country":"US","state":"Florida","city":"Cocoa Beach","zip_code":"32931","street":"North Atlantic Avenue","number":"1275","complement":null,"reference_point":null},{"category":"nightlife","lon":3.7254069,"created_on":1428009778,"name":"Pi-nuts","lat":51.0435838,"id":78,"description":null,"web_site":null,"email":null,"facebook":null,"country":"BE","state":null,"city":null,"zip_code":"9000","street":"Graaf Arnulfstraat","number":"8","complement":null,"reference_point":null},{"category":"food","lon":-97.7416594,"created_on":1397301102,"name":"Thai Kitchen","lat":30.2967459,"id":82,"description":null,"web_site":"http://thaikitchentx.com/","email":null,"facebook":null,"country":"US","state":"Texas","city":null,"zip_code":null,"street":"Guadalupe Street","number":"3009","complement":null,"reference_point":null},{"category":"default","lon":-1.2759528,"created_on":1416404770,"name":"Mansion Hill Veterinary Practice","lat":52.0717185,"id":80,"description":null,"web_site":"http://www.mansionhillvets.co.uk","email":null,"facebook":null,"country":"GB","state":null,"city":"Middleton Cheney","zip_code":"OX17 2PP","street":"Main Road","number":"133","complement":null,"reference_point":null},{"category":"shopping","lon":-73.9692312,"created_on":1429857148,"name":"Brooklyn Flea","lat":40.6873932,"id":84,"description":null,"web_site":null,"email":null,"facebook":null,"country":"US","state":"New York","city":null,"zip_code":null,"street":null,"number":null,"complement":null,"reference_point":null},{"category":"nightlife","lon":0.691889,"created_on":1417187458,"name":"Le Gros Bar","lat":47.3961491,"id":83,"description":null,"web_site":null,"email":null,"facebook":null,"country":"FR","state":null,"city":"Tours","zip_code":"37000","street":"Rue Colbert","number":"106","complement":null,"reference_point":null},{"category":"grocery","lon":-6.264294,"created_on":1430919444,"name":"Krust Bakery","lat":53.3436522,"id":85,"description":null,"web_site":null,"email":null,"facebook":null,"country":"IE","state":null,"city":"Dublin 2","zip_code":null,"street":"George's Street Great South","number":"5","complement":null,"reference_point":null},{"category":"shopping","lon":144.978844,"created_on":1384001968,"name":"Polyester Books","lat":-37.79726,"id":66,"description":null,"web_site":"http://polyester.com.au/","email":null,"facebook":null,"country":"AU","state":"Victoria","city":"Fitzroy","zip_code":"3065","street":"Brunswick Street","number":"330","complement":null,"reference_point":null},{"category":"food","lon":9.7074453,"created_on":1422368371,"name":"Das kleine Museum","lat":52.3723322,"id":44,"description":null,"web_site":null,"email":null,"facebook":null,"country":"DE","state":null,"city":"Hannover","zip_code":"30451","street":"Grotestraße","number":"10","complement":null,"reference_point":null},{"category":"default","lon":72.9191994667053,"created_on":1483131024,"name":"KAMRAN CHATTHA","lat":31.7467994213077,"id":9060,"description":null,"web_site":null,"email":null,"facebook":null,"country":"PK","state":null,"city":"Chenab Nagar","zip_code":"35460","street":"St-49","number":null,"complement":null,"reference_point":null},{"category":"default","lon":72.9194784164429,"created_on":1483131033,"name":"KAMRAN CHATTHA","lat":31.7519997301077,"id":9061,"description":null,"web_site":null,"email":null,"facebook":null,"country":"PK","state":null,"city":"Chenab Nagar","zip_code":"35460","street":"College Road","number":null,"complement":null,"reference_point":null},{"category":"default","lon":7.7508834,"created_on":1412285393,"name":"Computel","lat":45.1075649,"id":86,"description":null,"web_site":null,"email":null,"facebook":null,"country":"IT","state":null,"city":"San Mauro Torinese","zip_code":"10099","street":"Via Aosta","number":"16","complement":null,"reference_point":null},{"category":"default","lon":23.0132835,"created_on":1401431194,"name":"Viofarm","lat":45.8489973,"id":88,"description":null,"web_site":null,"email":null,"facebook":null,"country":"RO","state":null,"city":"Simeria","zip_code":"335900","street":"Piața Unirii","number":"6","complement":null,"reference_point":null},{"category":"grocery","lon":8.6500972,"created_on":1382533057,"name":"Grow","lat":49.8696994,"id":89,"description":null,"web_site":"http://growshopda.de/","email":null,"facebook":null,"country":"DE","state":null,"city":null,"zip_code":null,"street":null,"number":null,"complement":null,"reference_point":null},{"category":"food","lon":7.5865613,"created_on":1393945321,"name":"Tacoteca","lat":47.5489872,"id":90,"description":null,"web_site":null,"email":null,"facebook":null,"country":"CH","state":null,"city":"Basel","zip_code":"4051","street":"Viaduktstrasse","number":"12","complement":null,"reference_point":null},{"category":"attraction","lon":121.5745838,"created_on":1383742237,"name":"Jodie's Kitchen Cooking School","lat":25.0181253,"id":91,"description":null,"web_site":"http://kitchen.j321.com","email":null,"facebook":null,"country":"TW","state":null,"city":null,"zip_code":null,"street":null,"number":null,"complement":null,"reference_point":null},{"category":"lodging","lon":-97.2038827,"created_on":1405578271,"name":"Sandman Hotel & Suites Winnipeg Airport","lat":49.897371,"id":105,"description":null,"web_site":"http://www.sandmanhotels.ca/hotels/winnipeg/","email":null,"facebook":null,"country":"CA","state":"Manitoba","city":"Winnipeg","zip_code":"R3H 0C7","street":"Sargeant Avenue","number":"1750","complement":null,"reference_point":null},{"category":"default","lon":-117.227693,"created_on":1392330055,"name":"DiegoDev Group","lat":32.94998,"id":95,"description":null,"web_site":null,"email":null,"facebook":null,"country":"US","state":"California","city":"San Diego","zip_code":"92130","street":"Via Candidiz","number":"4120","complement":null,"reference_point":null},{"category":"default","lon":-117.3788832,"created_on":1386790407,"name":"Ares Armor","lat":33.1967248,"id":96,"description":null,"web_site":"http://aresarmor.com/","email":null,"facebook":null,"country":"US","state":"California","city":"Oceanside","zip_code":"92054","street":"N Freeman St","number":"208","complement":null,"reference_point":null},{"category":"default","lon":-117.348439,"created_on":1388298618,"name":"Heritage Senior Care","lat":33.164004,"id":97,"description":null,"web_site":null,"email":null,"facebook":null,"country":"US","state":"California","city":"Carlsbad","zip_code":"92008","street":"Jefferson St","number":"2755","complement":null,"reference_point":null},{"category":"default","lon":-117.188709,"created_on":1398989281,"name":"Invincible Creative","lat":32.76434,"id":98,"description":null,"web_site":"http://www.invinviblecreative.com","email":null,"facebook":null,"country":"US","state":"California","city":"San Diego","zip_code":"92110","street":"Friars Rd #183","number":"5765","complement":null,"reference_point":null},{"category":"default","lon":-117.2529544,"created_on":1386205120,"name":"Villalobos SD","lat":32.7959837,"id":99,"description":null,"web_site":"http://www.villalobossd.com/book-villalobos-now/","email":"spinityourself@gmail.com","facebook":null,"country":"US","state":"California","city":"San Diego","zip_code":"92109","street":"Hornblend St","number":"911","complement":null,"reference_point":null},{"category":"default","lon":-117.243776,"created_on":1413057081,"name":"Computer and Ink Store","lat":32.799441,"id":101,"description":null,"web_site":null,"email":null,"facebook":null,"country":"US","state":"California","city":"San Diego","zip_code":"92109","street":"Garnet Av","number":"1440","complement":null,"reference_point":null},{"category":"default","lon":-117.2003136,"created_on":1386206225,"name":"San Marcos Dental Center","lat":33.1471342,"id":102,"description":null,"web_site":"http://www.SanMarcosDentalCenter.com","email":null,"facebook":null,"country":"US","state":"California","city":"San Marcos","zip_code":"92078","street":"Rancho Santa Fe Rd","number":"162","complement":null,"reference_point":null},{"category":"transport","lon":-71.5403094,"created_on":1384022889,"name":"Irving","lat":44.2744446,"id":111,"description":null,"web_site":null,"email":null,"facebook":null,"country":"US","state":"New Hampshire","city":"Twin Mountain","zip_code":"03595","street":"130 Route 3 North","number":"P.O. Box 308","complement":null,"reference_point":null},{"category":"food","lon":-96.6091199,"created_on":1395401212,"name":"Chens Hunam Chinese Restaurant","lat":39.1922528,"id":124,"description":null,"web_site":"http://hunamrestaurant.com/","email":null,"facebook":null,"country":"US","state":"Kansas","city":null,"zip_code":null,"street":"Westloop Place","number":"1304","complement":null,"reference_point":null},{"category":"food","lon":8.5438017,"created_on":1389103279,"name":"Kafi Schoffel","lat":47.3712326,"id":104,"description":null,"web_site":"https://www.facebook.com/kafischoffel","email":null,"facebook":null,"country":"CH","state":null,"city":"Zürich","zip_code":"8001","street":"Schoffelgasse","number":"7","complement":null,"reference_point":null},{"category":"lodging","lon":-123.1129606,"created_on":1405584310,"name":"Sandman Hotel Vancouver City Centre","lat":49.2788858,"id":107,"description":null,"web_site":"http://www.sandmanhotels.ca/hotels/vancouver-city-centre/","email":null,"facebook":null,"country":"CA","state":"British Columbia","city":"Vancouver","zip_code":"V6B 4P4","street":"West Georgia Street","number":"180","complement":null,"reference_point":null},{"category":"food","lon":6.9611641,"created_on":1429988771,"name":"Oscar Lounge","lat":50.9369979,"id":106,"description":null,"web_site":"http://oscarlounge.de/","email":null,"facebook":null,"country":"DE","state":null,"city":"Köln","zip_code":"50667","street":"Heumarkt","number":"46","complement":null,"reference_point":null},{"category":"cafe","lon":-123.1224892,"created_on":1377270448,"name":"Waves Coffee House","lat":49.2807244,"id":108,"description":null,"web_site":"http://wavescoffee.com/","email":null,"facebook":null,"country":"CA","state":"British Columbia","city":"Vancouver","zip_code":"V6Z 2M4","street":"Howe Street","number":"900","complement":null,"reference_point":null},{"category":"default","lon":72.9114103317261,"created_on":1483131048,"name":"KAMRAN CHATTHA","lat":31.7588235518399,"id":9062,"description":null,"web_site":null,"email":null,"facebook":null,"country":"PK","state":null,"city":"Chenab Nagar","zip_code":"35460","street":"Aqsa Road","number":null,"complement":null,"reference_point":null},{"category":"food","lon":-97.8533226,"created_on":1397418338,"name":"Great Wall Express","lat":30.5499212,"id":94,"description":null,"web_site":"http://greatwallleander.com/","email":null,"facebook":null,"country":"US","state":"Texas","city":null,"zip_code":null,"street":"South Bagdad Road","number":"1906","complement":null,"reference_point":null},{"category":"default","lon":72.9173648357391,"created_on":1483131059,"name":"KAMRAN CHATTHA","lat":31.7580390203886,"id":9063,"description":null,"web_site":null,"email":null,"facebook":null,"country":"PK","state":null,"city":"Chenab Nagar","zip_code":"35460","street":"Aqsa Road","number":null,"complement":null,"reference_point":null},{"category":"default","lon":15.2702063,"created_on":1384862630,"name":"Royal Bohemian Crystal","lat":50.6973488,"id":112,"description":null,"web_site":"http://www.sultancrystal.com/","email":null,"facebook":null,"country":"CZ","state":null,"city":"Zásada","zip_code":"46825","street":null,"number":"348","complement":null,"reference_point":null},{"category":"lodging","lon":-0.1200706,"created_on":1394004656,"name":"Clink 261","lat":51.5290096,"id":113,"description":null,"web_site":"http://www.clinkhostels.com/","email":null,"facebook":null,"country":"GB","state":null,"city":"London","zip_code":"WC1X 8QT","street":"Gray's Inn Road","number":"261-263","complement":null,"reference_point":null},{"category":"default","lon":15.4505767,"created_on":1407761721,"name":"realraum","lat":47.0655785,"id":114,"description":null,"web_site":"http://www.realraum.at","email":"realraum@realraum.at","facebook":null,"country":"AT","state":null,"city":"Graz","zip_code":"8010","street":"Brockmanngasse","number":"15","complement":null,"reference_point":null},{"category":"shopping","lon":8.0075507,"created_on":1404740055,"name":"Camping Dalen","lat":59.4445706,"id":115,"description":null,"web_site":null,"email":null,"facebook":null,"country":"NO","state":null,"city":null,"zip_code":null,"street":null,"number":null,"complement":null,"reference_point":null},{"category":"default","lon":-0.088663,"created_on":1385968603,"name":"Himalayan People","lat":51.5271838,"id":116,"description":null,"web_site":"http://www.himalayanpeople.com/","email":null,"facebook":null,"country":"GB","state":null,"city":"London","zip_code":"EC1V 2NX","street":"City Road","number":"152","complement":null,"reference_point":null},{"category":"default","lon":16.1059363,"created_on":1418472309,"name":"Xcovers.cz","lat":50.2433201,"id":117,"description":null,"web_site":"http://xcovers.cz","email":null,"facebook":null,"country":"CZ","state":null,"city":"Přepychy","zip_code":"51732","street":"Přepychy","number":"197","complement":null,"reference_point":null},{"category":"food","lon":18.0850366,"created_on":1388249810,"name":"Dionysos","lat":59.3135253,"id":118,"description":null,"web_site":"http://www.dionysos.se/","email":null,"facebook":null,"country":"SE","state":null,"city":null,"zip_code":null,"street":null,"number":null,"complement":null,"reference_point":null},{"category":"nightlife","lon":12.5691017,"created_on":1426601770,"name":"Cafè Guldhornene","lat":55.6771501,"id":119,"description":null,"web_site":null,"email":null,"facebook":null,"country":"DK","state":null,"city":null,"zip_code":null,"street":null,"number":null,"complement":null,"reference_point":null},{"category":"nightlife","lon":12.5694568,"created_on":1426601770,"name":"Heidi's Bier Bar","lat":55.6773855,"id":120,"description":null,"web_site":null,"email":null,"facebook":null,"country":"DK","state":null,"city":"København K","zip_code":"1456","street":"Vestergade","number":"18","complement":null,"reference_point":null},{"category":"food","lon":102.1401794,"created_on":1402055299,"name":"Utopia Bar & Restaurant","lat":19.8881185,"id":121,"description":null,"web_site":"http://utopialuangprabang.com/","email":null,"facebook":null,"country":"LA","state":null,"city":null,"zip_code":null,"street":null,"number":null,"complement":null,"reference_point":null},{"category":"default","lon":17.9193025,"created_on":1394311692,"name":"CA Radost","lat":49.9174351,"id":122,"description":null,"web_site":"http://www.ca-radost.cz","email":null,"facebook":null,"country":"CZ","state":null,"city":null,"zip_code":"74706","street":"Joži Davida","number":"1327/29d","complement":null,"reference_point":null},{"category":"default","lon":-0.1343142,"created_on":1414337601,"name":"CeX","lat":51.5176692,"id":123,"description":null,"web_site":"https://uk.webuy.com/stores/store_details.php?branchId=2#.VE0TePmG-ao","email":null,"facebook":null,"country":"GB","state":null,"city":"London","zip_code":"W1T 1JJ","street":"Rathbone Place","number":"32","complement":null,"reference_point":null},{"category":"default","lon":72.8915405273437,"created_on":1483131113,"name":"KAMRAN CHATTHA","lat":31.7713751506284,"id":9064,"description":null,"web_site":null,"email":null,"facebook":null,"country":"PK","state":null,"city":"Chenab Nagar","zip_code":null,"street":"Sargodha - Faisalabad Road","number":null,"complement":null,"reference_point":null},{"category":"default","lon":9.1370482,"created_on":1390325167,"name":"Juniorbit Sas - Informatica","lat":45.5019349,"id":125,"description":null,"web_site":"http://juniorbit.it/","email":null,"facebook":null,"country":"IT","state":null,"city":"Milano","zip_code":"20156","street":"Via Mario Pannunzio","number":"4","complement":null,"reference_point":null},{"category":"food","lon":18.053015,"created_on":1405180962,"name":"Sushibar Satzuma","lat":59.2961262,"id":127,"description":null,"web_site":"https://www.facebook.com/SushibarSatzuma","email":null,"facebook":null,"country":"SE","state":null,"city":"Årsta","zip_code":"12052","street":"Årstavägen","number":"39","complement":null,"reference_point":null},{"category":"cafe","lon":14.4171779,"created_on":1389354644,"name":"Alchymista","lat":50.1008874,"id":87,"description":null,"web_site":"http://www.alchymista.cz","email":null,"facebook":"cukrarna.alchymista","country":"CZ","state":null,"city":null,"zip_code":null,"street":null,"number":null,"complement":null,"reference_point":null},{"category":"lodging","lon":-114.2085113,"created_on":1405576634,"name":"Sandman Hotel & Suites Calgary West","lat":51.0851087,"id":92,"description":null,"web_site":"http://www.sandmanhotels.ca/hotels/calgary-west/","email":null,"facebook":null,"country":"CA","state":"Alberta","city":"Calgary, AB","zip_code":"T3B 3R6","street":"Bowridge Crescent NW","number":"125","complement":null,"reference_point":null},{"category":"default","lon":72.8489685058594,"created_on":1483131120,"name":"KAMRAN CHATTHA","lat":31.7223266802243,"id":9065,"description":null,"web_site":null,"email":null,"facebook":null,"country":"PK","state":null,"city":"Farooka","zip_code":null,"street":"Sahiwal Road","number":null,"complement":null,"reference_point":null},{"category":"default","lon":23.5898366,"created_on":1413043777,"name":"Chaos Cowork Cluj","lat":46.7716796,"id":129,"description":null,"web_site":"http://chaoscc.ro/","email":null,"facebook":null,"country":"RO","state":null,"city":"Cluj-Napoca","zip_code":"400105","street":"Strada Regele Ferdinand","number":"6","complement":null,"reference_point":null},{"category":"default","lon":-79.3423214,"created_on":1409042966,"name":"Benjamin Sports Inc.","lat":43.6931896,"id":135,"description":null,"web_site":"http://benjaminsports.com/","email":null,"facebook":null,"country":"CA","state":"Ontario","city":"Toronto","zip_code":"M4J 3S2","street":"Donlands Avenue","number":"389","complement":null,"reference_point":null},{"category":"default","lon":-82.6368671,"created_on":1418693041,"name":"Lucky Dill","lat":27.7713863,"id":144,"description":null,"web_site":"http://www.luckydillofstpete.com/","email":null,"facebook":null,"country":"US","state":"Florida","city":"St. Petersburg","zip_code":"33701","street":"Central Ave","number":"277","complement":null,"reference_point":null},{"category":"grocery","lon":-1.497067,"created_on":1398233116,"name":"J. H. Mann - Fishmonger","lat":53.3675802,"id":132,"description":null,"web_site":"http://www.wedeliverlocal.co.uk/jhman-sheffield","email":null,"facebook":null,"country":"GB","state":null,"city":null,"zip_code":null,"street":"Sharrow Vale Road","number":"261","complement":null,"reference_point":null},{"category":"cafe","lon":-4.2796174,"created_on":1389704296,"name":"The Brooklyn Café","lat":55.8318061,"id":133,"description":null,"web_site":"https://www.facebook.com/Brooklyn1931","email":null,"facebook":null,"country":"GB","state":null,"city":"Glasgow","zip_code":null,"street":"Minard Road","number":"21-23","complement":null,"reference_point":null},{"category":"default","lon":2.8198917,"created_on":1432506902,"name":"Farmàcia Simon Bombi","lat":41.9761838,"id":134,"description":null,"web_site":null,"email":null,"facebook":null,"country":"ES","state":null,"city":null,"zip_code":null,"street":null,"number":null,"complement":null,"reference_point":null},{"category":"lodging","lon":-119.440302,"created_on":1405579918,"name":"Sandman Hotel & Suites Kelowna","lat":49.8824414,"id":163,"description":null,"web_site":"http://www.sandmanhotels.ca/hotels/kelowna/","email":null,"facebook":null,"country":"CA","state":"British Columbia","city":"Kelowna BC","zip_code":"V1Y 6G8","street":"Harvey Ave","number":"2130","complement":null,"reference_point":null},{"category":"lodging","lon":10.7680096,"created_on":1389222642,"name":"Gästehof Apolony","lat":53.7678697,"id":136,"description":null,"web_site":"http://www.gaeste-hof-apolony.de/","email":"Dieter-Apolony@web.de","facebook":null,"country":"DE","state":null,"city":"Utecht","zip_code":"19217","street":"Dorfstraße","number":"33","complement":null,"reference_point":null},{"category":"lodging","lon":16.8796875,"created_on":1385501721,"name":"Chalupa Komňátka","lat":50.0180775,"id":137,"description":null,"web_site":"http://www.komnatka.cz","email":null,"facebook":null,"country":"CZ","state":null,"city":"Bohdíkov","zip_code":"78964","street":null,"number":"ev.18","complement":null,"reference_point":null},{"category":"default","lon":73.0680084228516,"created_on":1483131135,"name":"KAMRAN CHATTHA","lat":31.8256484960194,"id":9066,"description":null,"web_site":null,"email":null,"facebook":null,"country":"PK","state":null,"city":"Karimpur","zip_code":null,"street":null,"number":null,"complement":null,"reference_point":null},{"category":"food","lon":23.7547799,"created_on":1405258104,"name":"Vegemesta","lat":61.4991966,"id":139,"description":null,"web_site":"http://vegemesta.com","email":null,"facebook":null,"country":"FI","state":null,"city":null,"zip_code":null,"street":"Puutarhakatu","number":"12","complement":null,"reference_point":null},{"category":"attraction","lon":-2.9642364,"created_on":1401468698,"name":"University of Cumbria Ambleside Campus","lat":54.4358207,"id":140,"description":null,"web_site":null,"email":null,"facebook":null,"country":"GB","state":null,"city":null,"zip_code":null,"street":null,"number":null,"complement":null,"reference_point":null},{"category":"cafe","lon":13.4704152,"created_on":1422638677,"name":"Burgcafé","lat":48.5774555,"id":142,"description":null,"web_site":"http://www.cafe-oberhaus.de/","email":"boubin@boubin.info","facebook":null,"country":"DE","state":null,"city":null,"zip_code":null,"street":null,"number":null,"complement":null,"reference_point":null},{"category":"food","lon":16.3745292,"created_on":1416232799,"name":"Tian Restaurant","lat":48.2052633,"id":143,"description":null,"web_site":"http://www.tian-vienna.com","email":null,"facebook":null,"country":"AT","state":null,"city":"Wien","zip_code":"1010","street":"Himmelpfortgasse","number":"23","complement":null,"reference_point":null},{"category":"food","lon":-82.631548,"created_on":1418692590,"name":"400 Beach Seafood","lat":27.777371,"id":145,"description":null,"web_site":"http://www.400beachseafood.com/","email":null,"facebook":null,"country":"US","state":"Florida","city":"Saint Petersburg","zip_code":null,"street":"Beach Drive Northeast","number":"400","complement":null,"reference_point":null},{"category":"food","lon":-82.6523574,"created_on":1408767986,"name":"Ferg's Sports Bar & Grill","lat":27.7709052,"id":146,"description":null,"web_site":"http://fergssportsbar.com/","email":null,"facebook":null,"country":"US","state":"Florida","city":"Saint Petersburg","zip_code":"33705","street":"Central Avenue","number":"1320","complement":null,"reference_point":null},{"category":"food","lon":-76.4505536,"created_on":1396080298,"name":"Mama Rosa Rotisserie & Grill","lat":39.3475198,"id":154,"description":null,"web_site":"http://mamarosagrill.com/","email":null,"facebook":null,"country":"US","state":"Maryland","city":"Middle River","zip_code":"21220","street":"Middle River Road","number":"836","complement":null,"reference_point":null},{"category":"attraction","lon":14.3165338,"created_on":1385547188,"name":"Dětské Centrum Hobík (školka, kroužky)","lat":49.9335938,"id":147,"description":null,"web_site":"http://www.svchobik.cz","email":null,"facebook":null,"country":"CZ","state":null,"city":null,"zip_code":"25231","street":"Karla Majera","number":"371","complement":null,"reference_point":null},{"category":"default","lon":14.2364788,"created_on":1385681450,"name":"gobit.cz - umožňuje přijímat platby v bitcoinech","lat":49.9208226,"id":148,"description":null,"web_site":"http://gobit.cz","email":null,"facebook":null,"country":"CZ","state":null,"city":null,"zip_code":"25230","street":"Ve Škabrdli","number":"416","complement":null,"reference_point":null},{"category":"default","lon":11.9017638,"created_on":1396344165,"name":"Primaleva Massage","lat":57.6549895,"id":149,"description":null,"web_site":null,"email":null,"facebook":null,"country":"SE","state":null,"city":null,"zip_code":null,"street":"Lergöksgatan","number":"4B","complement":null,"reference_point":null},{"category":"attraction","lon":4.8703456,"created_on":1396538879,"name":"Filmhuis Cavia","lat":52.3819756,"id":150,"description":null,"web_site":"http://www.filmhuiscavia.nl/","email":null,"facebook":null,"country":"NL","state":null,"city":"Amsterdam","zip_code":null,"street":"Van Hallstraat","number":"52-1","complement":null,"reference_point":null},{"category":"food","lon":74.5905907,"created_on":1375365302,"name":"Dolce Vita","lat":42.8431935,"id":151,"description":null,"web_site":null,"email":null,"facebook":null,"country":"KG","state":null,"city":null,"zip_code":null,"street":null,"number":null,"complement":null,"reference_point":null},{"category":"food","lon":8.4027712,"created_on":1404213034,"name":"Lago delle Rose","lat":45.9763815,"id":152,"description":null,"web_site":"http://lagodellerose.it/","email":null,"facebook":null,"country":"IT","state":null,"city":null,"zip_code":null,"street":null,"number":null,"complement":null,"reference_point":null},{"category":"shopping","lon":-74.5519558,"created_on":1394677112,"name":"Macy's","lat":40.9076669,"id":159,"description":null,"web_site":null,"email":null,"facebook":null,"country":"US","state":"New Jersey","city":null,"zip_code":null,"street":null,"number":null,"complement":null,"reference_point":null},{"category":"default","lon":14.5933665,"created_on":1411512949,"name":"BIRBOX, spletna trgovina","lat":46.0497563,"id":155,"description":null,"web_site":"http://www.birbox.si","email":null,"facebook":null,"country":"SI","state":null,"city":"Ljubljana - Polje","zip_code":"1260","street":"Papirniški trg","number":"18","complement":null,"reference_point":null},{"category":"shopping","lon":35.2243887,"created_on":1398541713,"name":"Hawsib Information Technologies","lat":31.7125521,"id":156,"description":null,"web_site":null,"email":null,"facebook":null,"country":"PS","state":null,"city":"Beit Sahour","zip_code":null,"street":"Al-Iskan Street","number":"8","complement":null,"reference_point":null},{"category":"food","lon":6.1510963,"created_on":1384007933,"name":"Adana Grill","lat":51.3677106,"id":157,"description":null,"web_site":"http://www.adanagrill.nl/","email":null,"facebook":null,"country":"NL","state":null,"city":"Venlo","zip_code":"5921 HM","street":"Pepijnstraat","number":"20","complement":null,"reference_point":null},{"category":"food","lon":6.1511367,"created_on":1383999916,"name":"Joseph Grill","lat":51.3674702,"id":158,"description":null,"web_site":"http://www.josephgrill.nl/","email":null,"facebook":null,"country":"NL","state":null,"city":"Venlo","zip_code":"5921 HM","street":"Pepijnstraat","number":"12","complement":null,"reference_point":null},{"category":"shopping","lon":-74.5552585,"created_on":1394676758,"name":"Lord & Taylor","lat":40.9073762,"id":160,"description":null,"web_site":null,"email":null,"facebook":null,"country":"US","state":"New Jersey","city":null,"zip_code":null,"street":null,"number":null,"complement":null,"reference_point":null},{"category":"food","lon":-82.3995584,"created_on":1395115329,"name":"China City","lat":28.1000502,"id":165,"description":null,"web_site":"http://chinacity-tampa.com/","email":null,"facebook":null,"country":"US","state":"Florida","city":null,"zip_code":null,"street":"Tampa Palms Boulevard West","number":"16049","complement":null,"reference_point":null},{"category":"food","lon":5.8688296,"created_on":1413379588,"name":"De Nieuwe Winkel","lat":51.8453363,"id":161,"description":null,"web_site":"http://www.denieuwewinkel.com","email":null,"facebook":null,"country":"NL","state":null,"city":null,"zip_code":"6511 RW","street":"Hertogstraat","number":"69,71","complement":null,"reference_point":null},{"category":"food","lon":37.5202352,"created_on":1384022274,"name":"Subway","lat":55.9317618,"id":162,"description":null,"web_site":"http://subway.ru/","email":null,"facebook":null,"country":"RU","state":null,"city":null,"zip_code":null,"street":null,"number":null,"complement":null,"reference_point":null},{"category":"default","lon":-75.7115951,"created_on":1398793100,"name":"Sun of A Gun","lat":45.4001728,"id":164,"description":null,"web_site":null,"email":null,"facebook":null,"country":"CA","state":"Ontario","city":"City of Ottawa","zip_code":null,"street":"Railway Street","number":"8","complement":null,"reference_point":null},{"category":"default","lon":-75.6939621,"created_on":1394239136,"name":"http://www.themodernshop.ca/","lat":45.4264515,"id":170,"description":null,"web_site":null,"email":null,"facebook":null,"country":"CA","state":"Ontario","city":"City of Ottawa","zip_code":null,"street":"Sussex Drive","number":"541","complement":null,"reference_point":null},{"category":"shopping","lon":-122.2958156,"created_on":1397057901,"name":"Counterbalance Bicycles","lat":47.6648179,"id":171,"description":null,"web_site":"http://www.counterbalancebicycles.com/","email":null,"facebook":null,"country":"US","state":"Washington","city":null,"zip_code":"98105","street":"NE Blakeley St","number":"2943","complement":null,"reference_point":null},{"category":"default","lon":-3.1787073,"created_on":1417699718,"name":"CeX Cardiff","lat":51.4767866,"id":166,"description":null,"web_site":null,"email":null,"facebook":null,"country":"GB","state":null,"city":null,"zip_code":null,"street":"Cardiff Central Square","number":null,"complement":null,"reference_point":null},{"category":"default","lon":17.1065474,"created_on":1365876147,"name":"Progressbar","lat":48.1442725,"id":167,"description":null,"web_site":"http://www.progressbar.sk","email":null,"facebook":null,"country":"SK","state":null,"city":null,"zip_code":null,"street":null,"number":null,"complement":null,"reference_point":null},{"category":"food","lon":14.4053181,"created_on":1429107086,"name":"U Malířů","lat":50.0864594,"id":168,"description":null,"web_site":null,"email":null,"facebook":null,"country":"CZ","state":null,"city":null,"zip_code":null,"street":null,"number":null,"complement":null,"reference_point":null},{"category":"nightlife","lon":6.6340684,"created_on":1417216944,"name":"QWERTZ","lat":46.5183958,"id":169,"description":null,"web_site":"http://www.standardcafe.ch","email":null,"facebook":null,"country":"CH","state":null,"city":null,"zip_code":"1003","street":"Rue de la Grotte","number":"3","complement":null,"reference_point":null},{"category":"nightlife","lon":-117.1297638,"created_on":1402005836,"name":"Rooted Kava Bar","lat":32.7478087,"id":131,"description":null,"web_site":"https://rootedkavabar.com/","email":null,"facebook":null,"country":"US","state":"California","city":"San Diego","zip_code":"92104","street":"Ray Street","number":"3811","complement":null,"reference_point":null},{"category":"nightlife","lon":144.983027,"created_on":1390044177,"name":"Grumpy's Green","lat":-37.80524,"id":130,"description":null,"web_site":"http://www.grumpysgreen.com/","email":null,"facebook":null,"country":"AU","state":"Victoria","city":"Fitzroy","zip_code":"3065","street":"Smith Street","number":"125","complement":null,"reference_point":null},{"category":"default","lon":-6.1327079,"created_on":1388753318,"name":"Michal Photo","lat":53.284784,"id":128,"description":null,"web_site":"http://www.michal-photo.com","email":null,"facebook":null,"country":"IE","state":null,"city":null,"zip_code":null,"street":null,"number":null,"complement":null,"reference_point":null},{"category":"default","lon":14.4503536,"created_on":1412783131,"name":"Andrago Winery","lat":49.7808809,"id":173,"description":null,"web_site":"http://www.andrago.cz","email":null,"facebook":null,"country":"CZ","state":null,"city":null,"zip_code":"25744","street":null,"number":"26","complement":null,"reference_point":null},{"category":"shopping","lon":2.2443054,"created_on":1373125113,"name":"John Landot","lat":48.8431028,"id":175,"description":null,"web_site":null,"email":null,"facebook":null,"country":"FR","state":null,"city":null,"zip_code":null,"street":"Rue du Château","number":"76","complement":null,"reference_point":null},{"category":"lodging","lon":-117.6555992,"created_on":1405579333,"name":"Sandman Hotel Castlegar","lat":49.296331,"id":189,"description":null,"web_site":"http://www.sandmanhotels.ca/hotels/castlegar/","email":null,"facebook":null,"country":"CA","state":"British Columbia","city":"Castlegar","zip_code":"V1N 2W7","street":"Columbia Avenue","number":"1944","complement":null,"reference_point":null},{"category":"lodging","lon":-122.4042094,"created_on":1365922552,"name":"Pacific Tradewinds Hostel","lat":37.7937071,"id":180,"description":null,"web_site":"http://www.san-francisco-hostel.com/","email":null,"facebook":null,"country":"US","state":"California","city":null,"zip_code":null,"street":"Sacramento Street","number":"680","complement":null,"reference_point":null},{"category":"food","lon":6.781741,"created_on":1429987347,"name":"La Lampada","lat":51.2177028,"id":178,"description":null,"web_site":"http://www.lalampada.de","email":null,"facebook":null,"country":"DE","state":null,"city":null,"zip_code":null,"street":null,"number":null,"complement":null,"reference_point":null},{"category":"default","lon":17.016939,"created_on":1394048908,"name":"soon bitcoinkiosk.ch","lat":51.0859286,"id":179,"description":null,"web_site":null,"email":null,"facebook":null,"country":"PL","state":null,"city":"Wrocław","zip_code":null,"street":"Aleja Wiśniowa","number":"26","complement":null,"reference_point":null},{"category":"food","lon":-97.7196383,"created_on":1397269594,"name":"Bamboo Bistro North","lat":30.3958149,"id":183,"description":null,"web_site":"http://north.bamboobistroonline.menufy.com/","email":null,"facebook":null,"country":"US","state":"Texas","city":null,"zip_code":null,"street":"Burnet Road","number":"11101","complement":null,"reference_point":null},{"category":"default","lon":-58.0425912,"created_on":1401047989,"name":"Farmacia Optica Agostini","lat":-34.8662606,"id":181,"description":null,"web_site":null,"email":null,"facebook":null,"country":"AR","state":null,"city":null,"zip_code":"1896","street":"CAMINO CENTENARIO Y DIAGONAL 92","number":"9","complement":null,"reference_point":null},{"category":"shopping","lon":10.1798307,"created_on":1385468467,"name":"Ulrich Buhmann","lat":47.9860263,"id":182,"description":null,"web_site":"http://www.schmuckkraftwerk.de/","email":"atelier69@msn.com","facebook":null,"country":"DE","state":null,"city":"Memmingen","zip_code":"87700","street":"Zwinggasse","number":"7","complement":null,"reference_point":null},{"category":"food","lon":-97.7474271,"created_on":1397272545,"name":"Bombay Bistro","lat":30.3986564,"id":185,"description":null,"web_site":"http://bombay-bistro-research.menufy.com/","email":null,"facebook":null,"country":"US","state":"Texas","city":null,"zip_code":null,"street":"Research Boulevard","number":"10710","complement":null,"reference_point":null},{"category":"default","lon":14.4359065,"created_on":1362308915,"name":"brmlab","lat":50.0984671,"id":184,"description":null,"web_site":"http://brmlab.cz/","email":"rada@brmlab.cz","facebook":null,"country":"CZ","state":null,"city":"Prague","zip_code":"17000","street":"Bubenská","number":"1","complement":null,"reference_point":null},{"category":"food","lon":-82.633613,"created_on":1416843973,"name":"The Ale and the Witch","lat":27.773918,"id":194,"description":null,"web_site":null,"email":null,"facebook":null,"country":"US","state":"Florida","city":"St. Petersburg","zip_code":"33701","street":"2nd Ave NE","number":"111","complement":null,"reference_point":null},{"category":"nightlife","lon":13.4181167,"created_on":1366234717,"name":"devil's kitchen - bar & restaurant","lat":52.4937763,"id":186,"description":null,"web_site":"http://devils-kitchen.com","email":"info@devils-kitchen.com","facebook":null,"country":"DE","state":null,"city":"Berlin","zip_code":"10967","street":"Graefestraße","number":"11","complement":null,"reference_point":null},{"category":"lodging","lon":27.8294873,"created_on":1418307770,"name":"EcoHotel Gora","lat":42.7621292,"id":187,"description":null,"web_site":"http://www.ecohotelgora.com/","email":null,"facebook":null,"country":"BG","state":null,"city":null,"zip_code":null,"street":null,"number":null,"complement":null,"reference_point":null},{"category":"shopping","lon":-79.5876526,"created_on":1426900708,"name":"Euro Flowers","lat":43.5495948,"id":193,"description":null,"web_site":"http://www.euroflowers.ca","email":null,"facebook":null,"country":"CA","state":"Ontario","city":"Mississauga","zip_code":"L5H 1E9","street":"Lakeshore Road West","number":"119","complement":null,"reference_point":null},{"category":"cafe","lon":9.7064773,"created_on":1418634218,"name":"Bohne","lat":52.3739428,"id":190,"description":null,"web_site":null,"email":null,"facebook":null,"country":"DE","state":null,"city":"Hannover","zip_code":"30451","street":"Limmerstraße","number":"56","complement":null,"reference_point":null},{"category":"default","lon":-4.2627761,"created_on":1408378523,"name":"CeX Glasgow Sauchiehall","lat":55.8654691,"id":192,"description":null,"web_site":null,"email":null,"facebook":null,"country":"GB","state":null,"city":"Glasgow","zip_code":"G2 3EH","street":"Sauchiehall Street","number":"254-290","complement":null,"reference_point":null},{"category":"lodging","lon":-114.0452219,"created_on":1405576418,"name":"Sandman Hotel & Suites Calgary South","lat":50.9815732,"id":215,"description":null,"web_site":"http://www.sandmanhotels.ca/hotels/calgary-south/","email":null,"facebook":null,"country":"CA","state":"Alberta","city":"Calgary AB","zip_code":"T2H 0B8","street":"11 Street SE","number":"8001","complement":null,"reference_point":null},{"category":"food","lon":-94.4175927,"created_on":1396332282,"name":"King Wok","lat":39.0408505,"id":199,"description":null,"web_site":"http://kingwokmo.com/","email":null,"facebook":null,"country":"US","state":"Missouri","city":null,"zip_code":null,"street":"S Noland Rd","number":"4376","complement":null,"reference_point":null},{"category":"transport","lon":11.1230431,"created_on":1423738983,"name":"Area di Servizio Petrol-Airport","lat":46.0384428,"id":195,"description":null,"web_site":"http://petrol-airport.it/","email":"info@petrol-airport.it","facebook":null,"country":"IT","state":null,"city":null,"zip_code":null,"street":null,"number":null,"complement":null,"reference_point":null},{"category":"food","lon":-61.415486,"created_on":1429528825,"name":"Nick's Cafe","lat":10.556875,"id":197,"description":null,"web_site":null,"email":null,"facebook":null,"country":"TT","state":null,"city":"Chaguanas","zip_code":null,"street":"Caroni Savannah Road","number":"195","complement":null,"reference_point":null},{"category":"lodging","lon":9.1111319,"created_on":1418408492,"name":"Affittacamere B&B Cagliari Novecento","lat":39.2160131,"id":198,"description":null,"web_site":"http://www.cagliarinovecento.it","email":"info@cagliarinovecento.it","facebook":null,"country":"IT","state":null,"city":"Cagliari","zip_code":"09124","street":"Via Giovanni Maria Angioy","number":"23","complement":null,"reference_point":null},{"category":"food","lon":-94.4160484,"created_on":1396333406,"name":"Mama Garden","lat":39.0402008,"id":201,"description":null,"web_site":"http://mamagardenmo.com/","email":null,"facebook":null,"country":"US","state":"Missouri","city":null,"zip_code":null,"street":"South Noland Road","number":"4400","complement":null,"reference_point":null},{"category":"food","lon":-3.6835198,"created_on":1415272730,"name":"Bofinn","lat":40.4351252,"id":200,"description":null,"web_site":null,"email":null,"facebook":null,"country":"ES","state":null,"city":null,"zip_code":null,"street":"Calle de Diego de León","number":null,"complement":null,"reference_point":null},{"category":"cafe","lon":-79.9254,"created_on":1367162582,"name":"Oh Yeah!","lat":40.4578787,"id":210,"description":null,"web_site":"http://theohyeah.com","email":null,"facebook":null,"country":"US","state":"penna","city":"Pittsburgh","zip_code":"15206","street":"South Highland Avenue","number":"232","complement":null,"reference_point":null},{"category":"food","lon":-3.6865757,"created_on":1415272615,"name":"Tamero","lat":40.4365907,"id":202,"description":null,"web_site":null,"email":null,"facebook":null,"country":"ES","state":null,"city":null,"zip_code":null,"street":"Calle de Serrano","number":"85","complement":null,"reference_point":null},{"category":"food","lon":-3.6865518,"created_on":1403285375,"name":"La Úrsula","lat":40.437361,"id":203,"description":null,"web_site":null,"email":null,"facebook":null,"country":"ES","state":null,"city":null,"zip_code":null,"street":"Calle de López de Hoyos","number":"17","complement":null,"reference_point":null},{"category":"food","lon":-3.6865027,"created_on":1415272642,"name":"La Taberna","lat":40.437451,"id":204,"description":null,"web_site":null,"email":null,"facebook":null,"country":"ES","state":null,"city":null,"zip_code":null,"street":"Calle de Serrano","number":null,"complement":null,"reference_point":null},{"category":"food","lon":-3.6848207,"created_on":1415272509,"name":"La Armonia","lat":40.4361646,"id":205,"description":null,"web_site":null,"email":null,"facebook":null,"country":"ES","state":null,"city":null,"zip_code":null,"street":"Calle del General Oráa","number":null,"complement":null,"reference_point":null},{"category":"food","lon":-3.6862478,"created_on":1415272593,"name":"Mesón 5Jotas","lat":40.4361971,"id":206,"description":null,"web_site":null,"email":null,"facebook":null,"country":"ES","state":null,"city":null,"zip_code":"28006","street":"Calle de Serrano","number":"118","complement":null,"reference_point":null},{"category":"food","lon":-3.6861892,"created_on":1415272574,"name":"Ori","lat":40.4364074,"id":207,"description":null,"web_site":null,"email":null,"facebook":null,"country":"ES","state":null,"city":null,"zip_code":null,"street":"Calle de Serrano","number":null,"complement":null,"reference_point":null},{"category":"food","lon":-3.6849646,"created_on":1415272698,"name":"El Séptimo","lat":40.4351692,"id":208,"description":null,"web_site":null,"email":null,"facebook":null,"country":"ES","state":null,"city":null,"zip_code":null,"street":"Calle de Diego de León","number":null,"complement":null,"reference_point":null},{"category":"food","lon":-3.6844928,"created_on":1415272713,"name":"El Asador de Aranda","lat":40.4352013,"id":209,"description":null,"web_site":null,"email":null,"facebook":null,"country":"ES","state":null,"city":null,"zip_code":null,"street":"Calle de Diego de León","number":null,"complement":null,"reference_point":null},{"category":"default","lon":13.4581799,"created_on":1407061614,"name":"do you space","lat":52.5177555,"id":211,"description":null,"web_site":"http://www.doyouspace.net/","email":null,"facebook":null,"country":"DE","state":null,"city":"Berlin","zip_code":"10247","street":"Rigaer Straße","number":"93","complement":null,"reference_point":null},{"category":"shopping","lon":15.4423455,"created_on":1403451621,"name":"Fahrradküche Graz","lat":47.063834,"id":212,"description":null,"web_site":"http://www.fahrradkueche.com/","email":null,"facebook":null,"country":"AT","state":null,"city":"Graz","zip_code":"8010","street":"Schießstattgasse","number":"40","complement":null,"reference_point":null},{"category":"shopping","lon":13.462218,"created_on":1380906332,"name":"Tricky Tunes","lat":52.5133689,"id":213,"description":null,"web_site":null,"email":null,"facebook":null,"country":"DE","state":null,"city":"Berlin","zip_code":"10247","street":"Mainzer Straße","number":"8","complement":null,"reference_point":null},{"category":"default","lon":24.9327511,"created_on":1409162341,"name":"Helsinki Shooting Club","lat":60.1645366,"id":214,"description":null,"web_site":null,"email":null,"facebook":null,"country":"FI","state":null,"city":"Helsinki","zip_code":"00180","street":"Albertinkatu","number":"36a","complement":null,"reference_point":null},{"category":"lodging","lon":-79.6311358,"created_on":1405578763,"name":"Stage West","lat":43.6422697,"id":172,"description":null,"web_site":"http://www.sandmanhotels.ca/hotels/toronto-airport/","email":null,"facebook":null,"country":"CA","state":"Ontario","city":null,"zip_code":null,"street":null,"number":null,"complement":null,"reference_point":null},{"category":"attraction","lon":-119.504094,"created_on":1385815253,"name":"Doctor Recommended","lat":49.8807247,"id":176,"description":null,"web_site":"http://www.doctorrecommendedmusic.com/","email":null,"facebook":null,"country":"CA","state":"British Columbia","city":null,"zip_code":null,"street":null,"number":null,"complement":null,"reference_point":null},{"category":"food","lon":-105.2539748,"created_on":1413064829,"name":"Moe's Original Bar B Que","lat":39.9991059,"id":177,"description":null,"web_site":"http://www.moesoriginalbbq.com/","email":null,"facebook":null,"country":"US","state":"Colorado","city":"Boulder","zip_code":null,"street":"30th Street","number":"675","complement":null,"reference_point":null},{"category":"default","lon":2.36894845962524,"created_on":1465975365,"name":"L'atelier de l'éphémère","lat":48.8293565716664,"id":8227,"description":"1st florist to accept bitcoin in Paris","web_site":"http://www.atelierdelephemere.com","email":"atelierdelephemere@orange.fr","facebook":null,"country":"FR","state":null,"city":"Paris","zip_code":"75013","street":"Jeanne d'Arc","number":"10","complement":null,"reference_point":null},{"category":"default","lon":14.4665479660034,"created_on":1488434921,"name":"Seoul Coin","lat":50.1106437171936,"id":9527,"description":null,"web_site":null,"email":null,"facebook":null,"country":"KR","state":null,"city":"Seoul","zip_code":null,"street":null,"number":null,"complement":null,"reference_point":null},{"category":"default","lon":16.3740867376328,"created_on":1488455740,"name":"Stadler Völkel Rechtsanwälte","lat":48.2046409519133,"id":9528,"description":"Stadler Völkel Attorneys at Law provide expert advice in selected areas of commercial and business law.","web_site":"http://www.svlaw.at","email":"office@svlaw.at","facebook":"StadlerVoelkelRechtsanwaelte","country":"AT","state":null,"city":"Vienna","zip_code":"1010","street":"Seilerstätte","number":"24","complement":null,"reference_point":null},{"category":"default","lon":-73.784384,"created_on":1402449591,"name":"Organica: Garden Supply & Hydroponics","lat":42.6402694,"id":219,"description":null,"web_site":"http://www.OrganicaGardenSupply.com","email":null,"facebook":null,"country":"US","state":"New York","city":"Albany","zip_code":"12209","street":"Delaware Avenue","number":"467","complement":null,"reference_point":null},{"category":"default","lon":-122.1479633,"created_on":1415410545,"name":"Red Door Movie Rental","lat":37.4269015,"id":221,"description":null,"web_site":"http://reddoormovies.com/","email":null,"facebook":null,"country":"US","state":"California","city":"Palo Alto","zip_code":"94306","street":"El Camino Real","number":"2123","complement":null,"reference_point":null},{"category":"food","lon":-71.1011293,"created_on":1367401404,"name":"VeggieGalaxy","lat":42.3636635,"id":222,"description":null,"web_site":"http://veggiegalaxy.com/","email":null,"facebook":null,"country":"US","state":"Massachusetts","city":"Cambridge, Massachusetts","zip_code":null,"street":"Massachusetts Ave.","number":"450","complement":null,"reference_point":null},{"category":"shopping","lon":-75.1345113,"created_on":1418872293,"name":"The Bicycle Stable","lat":39.9724031,"id":226,"description":null,"web_site":null,"email":null,"facebook":null,"country":"US","state":"penna","city":null,"zip_code":null,"street":null,"number":null,"complement":null,"reference_point":null},{"category":"food","lon":-97.7428345,"created_on":1397301292,"name":"Thai Passion - Downtown","lat":30.2689156,"id":227,"description":null,"web_site":"http://thaipassiondowntown.menufy.com/","email":null,"facebook":null,"country":"US","state":"Texas","city":null,"zip_code":null,"street":"Congress Ave","number":"620","complement":null,"reference_point":null},{"category":"lodging","lon":11.4136741,"created_on":1395831877,"name":"Bergasthof Plörr","lat":46.5637114,"id":318,"description":null,"web_site":"http://www.ploerr.com","email":null,"facebook":null,"country":"IT","state":null,"city":"Ritten - Renon","zip_code":"39054","street":"Oberinn","number":"45","complement":null,"reference_point":null},{"category":"grocery","lon":11.0439284,"created_on":1423589906,"name":"Drogheria Micheli","lat":45.888989,"id":223,"description":null,"web_site":"http://www.drogheriamicheli.it/","email":"info@drogheriamicheli.it","facebook":null,"country":"IT","state":null,"city":"Rovereto","zip_code":"38068","street":"Via Mercerie","number":"16","complement":null,"reference_point":null},{"category":"shopping","lon":17.1188022,"created_on":1393556209,"name":"Silver Moon","lat":48.1471429,"id":224,"description":null,"web_site":"http://www.silvermoon.sk/","email":null,"facebook":null,"country":"SK","state":null,"city":"Bratislava","zip_code":"811 08","street":"Cintorínska","number":"13","complement":null,"reference_point":null},{"category":"lodging","lon":4.4643255,"created_on":1392415051,"name":"Hotel van Walsum","lat":51.9151473,"id":225,"description":null,"web_site":"http://hotelvanwalsum.nl","email":null,"facebook":null,"country":"NL","state":null,"city":"Rotterdam","zip_code":"3014 HC","street":"Mathenesserlaan","number":"199","complement":null,"reference_point":null},{"category":"food","lon":-96.5740607,"created_on":1395400820,"name":"Green Tea Sushi Bar","lat":39.1850563,"id":228,"description":null,"web_site":"http://greentea.menufy.com/","email":null,"facebook":null,"country":"US","state":"Kansas","city":"Manhattan","zip_code":"66502","street":"Laramie Street","number":"1120","complement":null,"reference_point":null},{"category":"lodging","lon":-121.1120376,"created_on":1388651481,"name":"Mariner's Inn","lat":35.572302,"id":230,"description":null,"web_site":"http://www.marinersinncambria.com/","email":null,"facebook":null,"country":"US","state":"California","city":"Cambria","zip_code":"CA 93428","street":"Moonstone Beach Drive","number":null,"complement":null,"reference_point":null},{"category":"default","lon":-77.6189344,"created_on":1388441567,"name":"Netsville","lat":43.1550576,"id":232,"description":null,"web_site":"http://netsville.com","email":null,"facebook":null,"country":"US","state":"New York","city":"Rochester","zip_code":"14614","street":"Cascade Drive","number":"72","complement":null,"reference_point":null},{"category":"nightlife","lon":-3.6872715,"created_on":1409824787,"name":"Callejón de Serrano","lat":40.4326692,"id":229,"description":null,"web_site":"http://www.elcallejondeserrano.com/","email":null,"facebook":null,"country":"ES","state":null,"city":"Madrid","zip_code":"28006","street":"Calle de Serrano","number":"63","complement":null,"reference_point":null},{"category":"shopping","lon":-111.0740236,"created_on":1383176751,"name":"Rooks Comics and Games","lat":45.6723056,"id":242,"description":null,"web_site":null,"email":null,"facebook":null,"country":"US","state":"Montana","city":"Bozeman","zip_code":"59718","street":"West Main Street","number":"2740","complement":null,"reference_point":null},{"category":"food","lon":-111.8885341,"created_on":1389025552,"name":"Pie Hole","lat":40.7616461,"id":244,"description":null,"web_site":"http://pieholeutah.com/","email":null,"facebook":null,"country":"US","state":"Utah","city":"Salt Lake City","zip_code":null,"street":"State Street","number":"344  S","complement":null,"reference_point":null},{"category":"default","lon":7.924502,"created_on":1383905170,"name":"Rechtsanwalt Daniel Dietrich","lat":53.2588316,"id":233,"description":null,"web_site":"https://www.anwalt-wst.de","email":null,"facebook":null,"country":"DE","state":null,"city":"Westerstede","zip_code":"26655","street":"Am Brookwehr","number":"12","complement":null,"reference_point":null},{"category":"default","lon":-0.3323122,"created_on":1414404490,"name":"M & M Hair and Beauty","lat":51.5821466,"id":234,"description":null,"web_site":null,"email":null,"facebook":null,"country":"GB","state":null,"city":"Harrow","zip_code":null,"street":"Station Road","number":"280","complement":null,"reference_point":null},{"category":"default","lon":-0.3323591,"created_on":1417699719,"name":"CeX Harrow","lat":51.5821146,"id":235,"description":null,"web_site":null,"email":null,"facebook":null,"country":"GB","state":null,"city":null,"zip_code":null,"street":"Station Road","number":"282","complement":null,"reference_point":null},{"category":"default","lon":3.7326004,"created_on":1424461007,"name":"Whitespace","lat":51.0597214,"id":236,"description":null,"web_site":"http://0x20.be/","email":null,"facebook":null,"country":"BE","state":null,"city":"Ghent","zip_code":null,"street":"Blekerijstraat","number":"75","complement":null,"reference_point":null},{"category":"nightlife","lon":3.7215045,"created_on":1428010563,"name":"5 voor 12","lat":51.0547053,"id":237,"description":null,"web_site":"http://www.vijfvoortwaalf.be/","email":null,"facebook":null,"country":"BE","state":null,"city":"Gent centrum","zip_code":"9000","street":"Korenmarkt","number":"18","complement":null,"reference_point":null},{"category":"food","lon":100.874346,"created_on":1393939077,"name":"Pattaya Beer Garden","lat":12.9280252,"id":238,"description":null,"web_site":"http://www.pattayabeergarden.com/","email":null,"facebook":null,"country":"TH","state":null,"city":null,"zip_code":null,"street":"Beach Rd","number":null,"complement":null,"reference_point":null},{"category":"default","lon":9.1061094,"created_on":1374227669,"name":"MBR Architettura","lat":45.4609305,"id":240,"description":null,"web_site":"http://luce.co.nf","email":null,"facebook":null,"country":"IT","state":null,"city":"Milano","zip_code":"20152","street":"Via delle Forze Armate","number":null,"complement":null,"reference_point":null},{"category":"default","lon":-104.9871359,"created_on":1418083670,"name":"Unleaded Group","lat":39.7548245,"id":247,"description":null,"web_site":"http://www.unleadedsoftware.com/","email":null,"facebook":null,"country":"US","state":"Colorado","city":"Denver","zip_code":"80205","street":"Broadway","number":"2314","complement":null,"reference_point":null},{"category":"food","lon":8.6083517,"created_on":1388764725,"name":"Friesenkate","lat":54.315705,"id":243,"description":null,"web_site":null,"email":null,"facebook":null,"country":"DE","state":null,"city":"Sankt Peter-Ording","zip_code":"25826","street":"Im Bad","number":"17","complement":null,"reference_point":null},{"category":"food","lon":-6.1011288,"created_on":1390081801,"name":"3 Amigos","lat":53.2039061,"id":245,"description":null,"web_site":null,"email":null,"facebook":null,"country":"IE","state":null,"city":null,"zip_code":null,"street":null,"number":null,"complement":null,"reference_point":null},{"category":"cafe","lon":16.3951162,"created_on":1401361632,"name":"Cafe & Bar Diesels","lat":48.191622,"id":246,"description":null,"web_site":"http://www.diesels.at","email":null,"facebook":null,"country":"AT","state":null,"city":"Wien","zip_code":"1030","street":"Rennweg","number":"72","complement":null,"reference_point":null},{"category":"food","lon":-73.5240944,"created_on":1407201243,"name":"Brennan's By The Beach","lat":41.0374988,"id":252,"description":null,"web_site":"http://www.brennansbythebeach.com/","email":null,"facebook":null,"country":"US","state":"Connecticut","city":"stamford","zip_code":"06902","street":"Iroquois Rd","number":"82","complement":null,"reference_point":null},{"category":"food","lon":-58.3732278,"created_on":1404804983,"name":"Porto Pirata","lat":-34.596169,"id":248,"description":null,"web_site":null,"email":null,"facebook":null,"country":"AR","state":null,"city":null,"zip_code":null,"street":"Marcelo T. de Alvear","number":"401","complement":null,"reference_point":null},{"category":"cafe","lon":-73.7504154,"created_on":1392000270,"name":"The French Press Cafe & Creperie","lat":42.6540939,"id":218,"description":null,"web_site":null,"email":null,"facebook":null,"country":"US","state":"New York","city":"Albany","zip_code":"12207","street":"Clinton Square","number":"5","complement":null,"reference_point":null},{"category":"food","lon":9.2210821,"created_on":1401180699,"name":"EDA Milano","lat":45.4797273,"id":250,"description":null,"web_site":"http://edamilano.com/","email":null,"facebook":null,"country":"IT","state":null,"city":"Milano","zip_code":"20133","street":"Via Filippino Lippi","number":"7","complement":null,"reference_point":null},{"category":"food","lon":-97.2617458,"created_on":1396010273,"name":"Two Brothers BBQ Woodlawn","lat":37.7510094,"id":253,"description":null,"web_site":"http://twobroswoodlawn.menufy.com/","email":null,"facebook":null,"country":"US","state":"Kansas","city":null,"zip_code":null,"street":"North Woodlawn Street","number":"3750","complement":null,"reference_point":null},{"category":"food","lon":-97.7329828,"created_on":1397299467,"name":"Pho Thaison Vietnamese Cuisine","lat":30.3578376,"id":254,"description":null,"web_site":"http://phothaisonaustin.com/","email":null,"facebook":null,"country":"US","state":"Texas","city":null,"zip_code":null,"street":"W Anderson Ln","number":"2438","complement":null,"reference_point":null},{"category":"food","lon":25.2795982,"created_on":1405720718,"name":"Pilėnai","lat":54.6726313,"id":255,"description":null,"web_site":"https://www.facebook.com/Pilenai","email":null,"facebook":null,"country":"LT","state":null,"city":"Vilnius","zip_code":"01314","street":"Kauno g.","number":"1A","complement":null,"reference_point":null},{"category":"lodging","lon":24.639129,"created_on":1386712407,"name":"Азарея","lat":42.8747552,"id":256,"description":null,"web_site":"http://www.azareiya.com/","email":null,"facebook":null,"country":"BG","state":null,"city":null,"zip_code":null,"street":null,"number":null,"complement":null,"reference_point":null},{"category":"shopping","lon":3.7213797,"created_on":1411820435,"name":"Gameswap","lat":51.049848,"id":257,"description":null,"web_site":"http://gameswap.be","email":null,"facebook":null,"country":"BE","state":null,"city":"Gent","zip_code":"9000","street":"Schouwburgstraat","number":"24","complement":null,"reference_point":null},{"category":"cafe","lon":18.0788131,"created_on":1400745515,"name":"Twang","lat":59.3117663,"id":217,"description":null,"web_site":"http://twang.se/fiket/","email":null,"facebook":null,"country":"SE","state":null,"city":null,"zip_code":null,"street":null,"number":null,"complement":null,"reference_point":null},{"category":"default","lon":15.23606300354,"created_on":1466020184,"name":"Detektywi Gorzów","lat":52.730964493116,"id":8228,"description":null,"web_site":"http://www.detektywi-gorzow.pl","email":"detektywi.gorzow@gmail.com","facebook":null,"country":"PL","state":"lubuskie","city":"Gorzów Wlkp.","zip_code":"66-400","street":"Pocztowa 20/4","number":null,"complement":null,"reference_point":null},{"category":"attraction","lon":19.7032346,"created_on":1386944559,"name":"Gospodarstwo Agroturystyczno - Ekologiczne\"Stajnia Leźno\"","lat":53.2710389,"id":280,"description":null,"web_site":null,"email":"lezno111@gmail.com","facebook":null,"country":"PL","state":null,"city":"Małe Leźno","zip_code":"87-313","street":null,"number":"44","complement":null,"reference_point":null},{"category":"food","lon":-75.1391589,"created_on":1418872254,"name":"PYT","lat":39.9665561,"id":264,"description":null,"web_site":"http://pytphilly.com/","email":null,"facebook":null,"country":"US","state":"penna","city":"Philadelphia","zip_code":"19123","street":"North Hancock Street","number":"1050","complement":null,"reference_point":null},{"category":"lodging","lon":18.9057165,"created_on":1385830645,"name":"Apartmán ajaj","lat":48.4506331,"id":263,"description":null,"web_site":"http://apartman.ajaj.sk","email":null,"facebook":null,"country":"SK","state":null,"city":null,"zip_code":null,"street":"Križovatka","number":"20","complement":null,"reference_point":null},{"category":"default","lon":-122.2264733,"created_on":1419672706,"name":"It Is Vapor","lat":37.4855589,"id":266,"description":null,"web_site":"http://www.itisvapor.com","email":null,"facebook":null,"country":"US","state":"California","city":"Redwood City","zip_code":"94063","street":"Main Street","number":"850-B","complement":null,"reference_point":null},{"category":"shopping","lon":10.8760253,"created_on":1433312817,"name":"Bertamini","lat":45.869228,"id":265,"description":null,"web_site":"http://www.bertaminishop.com/","email":"info@bertaminishop.com","facebook":null,"country":"IT","state":null,"city":"Torbole sul Garda","zip_code":"38069","street":"Piazza Benacense","number":"2","complement":null,"reference_point":null},{"category":"food","lon":-71.1010542,"created_on":1399490129,"name":"Moksa","lat":42.3636159,"id":269,"description":null,"web_site":null,"email":null,"facebook":null,"country":"US","state":"Massachusetts","city":"Cambridge","zip_code":"02139","street":"Massachusetts Ave","number":"450","complement":null,"reference_point":null},{"category":"default","lon":10.163109,"created_on":1389110463,"name":"n7media - Agentur für Kommunikations- und Webdesign","lat":53.6528377,"id":267,"description":null,"web_site":"http://www.n7media.de","email":null,"facebook":null,"country":"DE","state":null,"city":"Hamburg","zip_code":"22359","street":"Kattjahren","number":"8","complement":null,"reference_point":null},{"category":"default","lon":9.0330749,"created_on":1400621284,"name":"Kunstkopien in Öl auf Leinwand - Dorothea Adam","lat":51.6267552,"id":268,"description":null,"web_site":null,"email":null,"facebook":null,"country":"XXX","state":null,"city":"Willebadessen","zip_code":"34439","street":"Alte Schulstraße","number":"5","complement":null,"reference_point":null},{"category":"food","lon":-85.6645169,"created_on":1393649512,"name":"One Stop Coney Shop","lat":42.9630238,"id":273,"description":null,"web_site":"http://www.onestopconeyshop.com/","email":null,"facebook":null,"country":"US","state":"Michigan","city":"Grand Rapids","zip_code":"49503","street":"Fulton Street East","number":"154","complement":null,"reference_point":null},{"category":"lodging","lon":-68.8448455,"created_on":1373401799,"name":"Hotel San Martín","lat":-32.8883981,"id":270,"description":null,"web_site":"http://hotelsanmartinmendoza.com/","email":null,"facebook":null,"country":"AR","state":null,"city":"Mendoza","zip_code":null,"street":"Espejo","number":"435","complement":null,"reference_point":null},{"category":"food","lon":12.2857136,"created_on":1398602987,"name":"Pizzeria Tiepolo","lat":45.6771049,"id":271,"description":null,"web_site":"http://www.pizzeriatiepolo.com/","email":null,"facebook":null,"country":"IT","state":null,"city":"Carbonera","zip_code":"31030","street":"Via Brigata Marche","number":"85","complement":null,"reference_point":null},{"category":"shopping","lon":13.3947046,"created_on":1381173257,"name":"Otherland","lat":52.4888868,"id":272,"description":null,"web_site":"http://otherland-berlin.de/","email":"service@otherland-berlin.de","facebook":null,"country":"DE","state":null,"city":"Berlin","zip_code":"10961","street":"Bergmannstraße","number":"25","complement":null,"reference_point":null},{"category":"cafe","lon":-97.7504309,"created_on":1397296997,"name":"Minh's Cafe","lat":30.4287281,"id":278,"description":null,"web_site":"http://minhscafe.menufy.com/","email":null,"facebook":null,"country":"US","state":"Texas","city":null,"zip_code":null,"street":"Riata Trace Parkway","number":"12221","complement":null,"reference_point":null},{"category":"lodging","lon":19.6458031,"created_on":1400001308,"name":"Pole namiotowe","lat":53.2000961,"id":274,"description":null,"web_site":"http://www.podnamiot.cba.pl","email":"kontakt@podnamiot.cba.pl","facebook":null,"country":"PL","state":null,"city":"Górzno","zip_code":"87-320","street":"Wędkarska","number":null,"complement":null,"reference_point":null},{"category":"lodging","lon":-71.5651245,"created_on":1403486149,"name":"La Casa del Almirante","lat":-33.0268673,"id":275,"description":null,"web_site":"http://www.lacasadelalmirante.com","email":null,"facebook":null,"country":"CL","state":null,"city":"Viña del Mar","zip_code":null,"street":"Pasaje El Hogar","number":"3","complement":null,"reference_point":null},{"category":"default","lon":8.1048822,"created_on":1397052767,"name":"michele silvestri","lat":45.5815867,"id":276,"description":null,"web_site":null,"email":null,"facebook":null,"country":"IT","state":null,"city":"Ronco Biellese","zip_code":"13845","street":"Via Libertà","number":"61","complement":null,"reference_point":null},{"category":"attraction","lon":8.5338035,"created_on":1374240336,"name":"Das Russische Sprachstudio","lat":47.3810339,"id":277,"description":null,"web_site":"https://www.ru-sprachstudio.ch/","email":null,"facebook":null,"country":"CH","state":null,"city":"Zürich","zip_code":"8005","street":"Josefstrasse","number":"26","complement":null,"reference_point":null},{"category":"default","lon":-73.9907073,"created_on":1385489709,"name":"Steve Alper DMD","lat":40.7389191,"id":282,"description":null,"web_site":"http://alperdmd.com/","email":null,"facebook":null,"country":"US","state":"New York","city":"New York","zip_code":"10003","street":"East 19th Street","number":"5","complement":null,"reference_point":null},{"category":"food","lon":5.3745371,"created_on":1387841036,"name":"Jia","lat":52.1549622,"id":283,"description":null,"web_site":"http://restaurantjia.com/","email":"admin@restaurantjia.com","facebook":null,"country":"NL","state":null,"city":"Amersfoort","zip_code":"3812 GZ","street":"Piet Mondriaanplein","number":"189-193","complement":null,"reference_point":null},{"category":"default","lon":16.3733152,"created_on":1414180363,"name":"BOTENDIENST|QUICKTRANSPORT.AT","lat":48.1872898,"id":284,"description":null,"web_site":"http://www.quicktransport.at","email":null,"facebook":null,"country":"AT","state":null,"city":"Wien","zip_code":"1040","street":"Favoritenstraße","number":"74","complement":null,"reference_point":null},{"category":"food","lon":-81.86325,"created_on":1393078866,"name":"ZCrêpes Café","lat":26.6428482,"id":288,"description":null,"web_site":"http://www.zcrepes.com","email":null,"facebook":null,"country":"US","state":"Florida","city":"Fort Myers","zip_code":"33901","street":"Fowler Street","number":"1815-1","complement":null,"reference_point":null},{"category":"grocery","lon":24.9195985,"created_on":1432929222,"name":"K-Market Jätkäsaari","lat":60.1603553,"id":286,"description":null,"web_site":null,"email":null,"facebook":null,"country":"FI","state":null,"city":"Helsinki","zip_code":"00220","street":"Tyynenmerenkatu","number":"5","complement":null,"reference_point":null},{"category":"lodging","lon":2.882953,"created_on":1431604176,"name":"La Porte Cochère","lat":50.8493957,"id":287,"description":null,"web_site":"http://www.laportecochere.com/","email":"info@laportecochere.com","facebook":null,"country":"BE","state":null,"city":null,"zip_code":null,"street":"Paterstraat","number":"22","complement":null,"reference_point":null},{"category":"default","lon":-74.6529196,"created_on":1387380611,"name":"Bars 'N Beats Recording Studio","lat":40.5009856,"id":292,"description":null,"web_site":"http://www.BarsNBeatsRecording.com","email":null,"facebook":null,"country":"US","state":"New Jersey","city":null,"zip_code":null,"street":null,"number":null,"complement":null,"reference_point":null},{"category":"food","lon":24.9478673,"created_on":1417000702,"name":"Spis","lat":60.1637887,"id":289,"description":null,"web_site":"http://spis.fi/","email":null,"facebook":null,"country":"FI","state":null,"city":"Helsinki","zip_code":"00130","street":"Kasarminkatu","number":"26","complement":null,"reference_point":null},{"category":"default","lon":-73.978673,"created_on":1392585150,"name":"PerronHosting.com","lat":45.7703,"id":290,"description":null,"web_site":"http://www.perronhosting.com","email":null,"facebook":null,"country":"CA","state":null,"city":"Saint-Jérôme","zip_code":null,"street":"Avenue du Parc","number":"1025","complement":null,"reference_point":null},{"category":"grocery","lon":-122.4092269,"created_on":1365918799,"name":"Cups and Cakes Bakery","lat":37.7720246,"id":296,"description":null,"web_site":"http://cupsandcakesbakery.com","email":null,"facebook":null,"country":"US","state":"California","city":null,"zip_code":null,"street":"9th Street","number":"451","complement":null,"reference_point":null},{"category":"lodging","lon":24.956026,"created_on":1385485677,"name":"Cheapsleep Hostel","lat":60.193792,"id":293,"description":null,"web_site":null,"email":null,"facebook":null,"country":"FI","state":null,"city":"Helsinki","zip_code":null,"street":"Sturenkatu","number":"27","complement":null,"reference_point":null},{"category":"default","lon":100.6171651,"created_on":1421255818,"name":"กองตำรวจสื่อสาร","lat":13.8635545,"id":295,"description":null,"web_site":"http://www.logobkk.com","email":null,"facebook":null,"country":"TH","state":null,"city":null,"zip_code":null,"street":null,"number":null,"complement":null,"reference_point":null},{"category":"food","lon":-97.5317178,"created_on":1397053676,"name":"Lido Asian Cuisine","lat":35.4950363,"id":298,"description":null,"web_site":"http://lidorestaurantokc.com/","email":null,"facebook":null,"country":"US","state":"Oklahoma","city":null,"zip_code":null,"street":"North Military Avenue","number":"2518","complement":null,"reference_point":null},{"category":"default","lon":17.6494571,"created_on":1417178591,"name":"?","lat":49.220221,"id":297,"description":null,"web_site":null,"email":null,"facebook":null,"country":"CZ","state":null,"city":null,"zip_code":"76001","street":"třída Tomáše Bati","number":"4342","complement":null,"reference_point":null},{"category":"default","lon":13.2427051,"created_on":1366300752,"name":"Romantikresort","lat":48.7096216,"id":259,"description":null,"web_site":"http://romantikresort.de/","email":null,"facebook":null,"country":"DE","state":null,"city":"Eging Am See","zip_code":"94535","street":"Kroissenhof","number":"4","complement":null,"reference_point":null},{"category":"default","lon":16.9013983011246,"created_on":1470985470,"name":"www.Manunu.eu","lat":52.4097888162611,"id":8418,"description":"www.Manunu.eu","web_site":"http://www.manunu.eu/","email":"kontakt@manunu.eu","facebook":"manunuu","country":"PL","state":"wielkopolska","city":"Poznań","zip_code":"60-508","street":null,"number":null,"complement":null,"reference_point":null},{"category":"default","lon":16.3421012,"created_on":1401966552,"name":"Masshemden Atelier Voglhuber","lat":48.2243996,"id":301,"description":null,"web_site":null,"email":null,"facebook":null,"country":"AT","state":null,"city":"Wien","zip_code":"1180","street":"Martinstraße","number":"74","complement":null,"reference_point":null},{"category":"default","lon":-80.4910633,"created_on":1395248839,"name":"Sara's KW Driving Academy","lat":43.4496827,"id":321,"description":null,"web_site":null,"email":null,"facebook":null,"country":"CA","state":"Ontario","city":"Kitchener","zip_code":"N2G 1X4","street":"Ontario Street South","number":"A50","complement":null,"reference_point":null},{"category":"food","lon":-97.4422524,"created_on":1397052068,"name":"Padthai Thai Restaurant","lat":35.2115934,"id":310,"description":null,"web_site":"http://padthainorman.com/","email":null,"facebook":null,"country":"US","state":"Oklahoma","city":null,"zip_code":null,"street":"West Boyd Street","number":"119","complement":null,"reference_point":null},{"category":"default","lon":-5.9786981,"created_on":1385854474,"name":"Clínica Lucq","lat":37.3744381,"id":304,"description":null,"web_site":"http://clinicalucq.es/","email":null,"facebook":null,"country":"ES","state":null,"city":"Sevilla","zip_code":"41013","street":"avenida Ramón Carande","number":"5","complement":null,"reference_point":null},{"category":"default","lon":18.0954851,"created_on":1386234831,"name":"Alternativhälsan Östermalm","lat":59.3457035,"id":305,"description":null,"web_site":"http://www.alternativhalsan.nu","email":null,"facebook":null,"country":"SE","state":null,"city":null,"zip_code":null,"street":null,"number":null,"complement":null,"reference_point":null},{"category":"default","lon":8.5409899,"created_on":1384974419,"name":"Peyer Fine Art GmbH","lat":47.3723846,"id":306,"description":null,"web_site":"http://peyer.com/","email":null,"facebook":null,"country":"CH","state":null,"city":null,"zip_code":"8001","street":"Pfalzgasse","number":"2","complement":null,"reference_point":null},{"category":"food","lon":11.9771524,"created_on":1386686686,"name":"Jonsborg Gatukök","lat":57.6985148,"id":307,"description":null,"web_site":"http://www.jonsborgsgrill.se/","email":null,"facebook":null,"country":"SE","state":null,"city":"Göteborg","zip_code":"411 27","street":"Kungsportsavenyn","number":"39","complement":null,"reference_point":null},{"category":"food","lon":127.0292663,"created_on":1404008794,"name":"이자카야 동경구락부","lat":37.585497,"id":308,"description":null,"web_site":null,"email":null,"facebook":null,"country":"KR","state":null,"city":null,"zip_code":null,"street":"인촌로24길","number":"16","complement":null,"reference_point":null},{"category":"shopping","lon":17.3340746,"created_on":1426093958,"name":"Okrasná školka Droždín","lat":49.6124609,"id":309,"description":null,"web_site":"http://www.drozdin.cz","email":null,"facebook":null,"country":"CZ","state":null,"city":"Olomouc - Droždín","zip_code":"77900","street":"Horní Úlehla","number":"324/32","complement":null,"reference_point":null},{"category":"default","lon":-96.0826749,"created_on":1385474327,"name":"CoVis CoWorking","lat":41.2498239,"id":311,"description":null,"web_site":"http://www.covisco.com","email":null,"facebook":null,"country":"US","state":"Nebraska","city":null,"zip_code":"68114","street":"South 107th Avenue Suite 106","number":"920","complement":null,"reference_point":null},{"category":"food","lon":-82.633105,"created_on":1418692843,"name":"Cassis American Brasserie","lat":27.773313,"id":312,"description":null,"web_site":"http://cassisab.com/","email":null,"facebook":null,"country":"US","state":"Florida","city":"St. Petersburg","zip_code":"33701","street":"Beach Drive","number":"170","complement":null,"reference_point":null},